[
  {
    "restaurantId": 1,
    "osmId": "61100894",
    "name": "Gasthof Laurin",
    "cuisine": "",
    "phone": "",
    "website": "https://gasthof-laurin.com/",
    "municipality": "",
    "address": "",
    "postcode": "",
    "nearResort": "24 Laurin I",
    "distanceToResort_km": 4.6,
    "latitude": 46.466007,
    "longitude": 11.5305153
  },
  {
    "restaurantId": 2,
    "osmId": "123517898",
    "name": "Frickhof",
    "cuisine": "",
    "phone": "+39 0473 656 119",
    "website": "https://www.frickhof.com",
    "municipality": "",
    "address": "Passeirer Straße - Via Passiria 31",
    "postcode": "39015",
    "nearResort": "Saxner II",
    "distanceToResort_km": 4.8,
    "latitude": 46.8115272,
    "longitude": 11.2468581
  },
  {
    "restaurantId": 3,
    "osmId": "247887464",
    "name": "Dal Boccia",
    "cuisine": "pasta;pizza;regional;seafood",
    "phone": "+39 0461 437903",
    "website": "",
    "municipality": "",
    "address": "Via degli Alberti Poja 13",
    "postcode": "31822",
    "nearResort": "3-Tre Vaneze",
    "distanceToResort_km": 6.1,
    "latitude": 46.0718261,
    "longitude": 11.1404686
  },
  {
    "restaurantId": 4,
    "osmId": "258441546",
    "name": "Pizzeria \"Le palme\"",
    "cuisine": "pizza",
    "phone": "+39 0464 411201",
    "website": "",
    "municipality": "",
    "address": "Via Panizza 56",
    "postcode": "",
    "nearResort": "Palon",
    "distanceToResort_km": 12.3,
    "latitude": 45.9171651,
    "longitude": 11.0531014
  },
  {
    "restaurantId": 5,
    "osmId": "259973562",
    "name": "Il bosco incantato",
    "cuisine": "",
    "phone": "+39 0461 960826",
    "website": "",
    "municipality": "Trento",
    "address": "Via del Lavaron 2",
    "postcode": "31821",
    "nearResort": "3-Tre Vaneze",
    "distanceToResort_km": 8.7,
    "latitude": 46.1096102,
    "longitude": 11.1402622
  },
  {
    "restaurantId": 6,
    "osmId": "261081683",
    "name": "Agritur",
    "cuisine": "",
    "phone": "",
    "website": "",
    "municipality": "",
    "address": "",
    "postcode": "",
    "nearResort": "Alpe Cermis",
    "distanceToResort_km": 4.3,
    "latitude": 46.2789911,
    "longitude": 11.4354671
  },
  {
    "restaurantId": 7,
    "osmId": "261086637",
    "name": "Pizzeria La Ruota",
    "cuisine": "",
    "phone": "",
    "website": "",
    "municipality": "",
    "address": "",
    "postcode": "",
    "nearResort": "Alpe Cermis",
    "distanceToResort_km": 5.3,
    "latitude": 46.2712502,
    "longitude": 11.417343
  },
  {
    "restaurantId": 8,
    "osmId": "267649391",
    "name": "Crown",
    "cuisine": "pizza",
    "phone": "",
    "website": "",
    "municipality": "Mezzocorona",
    "address": "Via Fratelli Grandi",
    "postcode": "38016",
    "nearResort": "La Rocca",
    "distanceToResort_km": 7.2,
    "latitude": 46.2148653,
    "longitude": 11.1168418
  },
  {
    "restaurantId": 9,
    "osmId": "268421250",
    "name": "Ristorante Argentino ¨Sapori di Patagonia¨",
    "cuisine": "",
    "phone": "",
    "website": "",
    "municipality": "",
    "address": "",
    "postcode": "",
    "nearResort": "Pradis_ci",
    "distanceToResort_km": 9.6,
    "latitude": 46.0856765,
    "longitude": 11.2153436
  },
  {
    "restaurantId": 10,
    "osmId": "268430904",
    "name": "Dalla Sora Giovanna",
    "cuisine": "",
    "phone": "+39 0461 095967",
    "website": "https://dallasoragiovanna.it/",
    "municipality": "Trento",
    "address": "Via Roggia Grande 8",
    "postcode": "31822",
    "nearResort": "3-Tre Vaneze",
    "distanceToResort_km": 4.7,
    "latitude": 46.0674055,
    "longitude": 11.1243864
  },
  {
    "restaurantId": 11,
    "osmId": "268432521",
    "name": "Trattoria Al Tino",
    "cuisine": "",
    "phone": "",
    "website": "",
    "municipality": "Trento",
    "address": "Via Santissima Trinitá 10",
    "postcode": "31822",
    "nearResort": "3-Tre Vaneze",
    "distanceToResort_km": 4.6,
    "latitude": 46.066267,
    "longitude": 11.1229923
  },
  {
    "restaurantId": 12,
    "osmId": "268435080",
    "name": "Trattoria Al Mercato",
    "cuisine": "",
    "phone": "",
    "website": "",
    "municipality": "Trento",
    "address": "Piazza Giovanni Battista Garzetti 15",
    "postcode": "31822",
    "nearResort": "3-Tre Vaneze",
    "distanceToResort_km": 4.6,
    "latitude": 46.0659754,
    "longitude": 11.1238802
  },
  {
    "restaurantId": 13,
    "osmId": "268435081",
    "name": "Borgo Nuovo Trento",
    "cuisine": "fish;pizza",
    "phone": "+39 0461 261375",
    "website": "http://3portoni.it/",
    "municipality": "Trento",
    "address": "Prima Androna di Borgo Nuovo 20",
    "postcode": "31822",
    "nearResort": "3-Tre Vaneze",
    "distanceToResort_km": 4.6,
    "latitude": 46.0658302,
    "longitude": 11.1236344
  },
  {
    "restaurantId": 14,
    "osmId": "268803099",
    "name": "Agritur Maso Sorte",
    "cuisine": "regional",
    "phone": "",
    "website": "",
    "municipality": "",
    "address": "",
    "postcode": "",
    "nearResort": "Alpe Cermis",
    "distanceToResort_km": 3.6,
    "latitude": 46.2779665,
    "longitude": 11.4452067
  },
  {
    "restaurantId": 15,
    "osmId": "269145543",
    "name": "Alla Grotta",
    "cuisine": "swiss",
    "phone": "+39 0464 553244",
    "website": "http://allagrotta.com",
    "municipality": "Arco",
    "address": "Via Monte Brione 5",
    "postcode": "38062",
    "nearResort": "Centro Sci di Fondo Chinaec",
    "distanceToResort_km": 11.0,
    "latitude": 45.8949163,
    "longitude": 10.8702292
  },
  {
    "restaurantId": 16,
    "osmId": "269193687",
    "name": "Al Vesuvio",
    "cuisine": "italian",
    "phone": "+39 0461 987303",
    "website": "https://ristorantepizzeria-alvesuvio.eatbu.com/?lang=en",
    "municipality": "Trento",
    "address": "Via della Malvasia 103",
    "postcode": "31822",
    "nearResort": "3-Tre Vaneze",
    "distanceToResort_km": 5.2,
    "latitude": 46.0752383,
    "longitude": 11.1251318
  },
  {
    "restaurantId": 17,
    "osmId": "269193730",
    "name": "Birreria Pizzeria Pedavena",
    "cuisine": "",
    "phone": "+39 0461 986255",
    "website": "http://www.birreriapedavena.com",
    "municipality": "Trento",
    "address": "Piazza di Fiera 13",
    "postcode": "31822",
    "nearResort": "3-Tre Vaneze",
    "distanceToResort_km": 4.5,
    "latitude": 46.0647702,
    "longitude": 11.123413
  },
  {
    "restaurantId": 18,
    "osmId": "269193732",
    "name": "Trattoria al Volt",
    "cuisine": "italian;regional",
    "phone": "+39 0461 983776",
    "website": "http://tienne.it/alvolt/",
    "municipality": "Trento",
    "address": "Via Santa Croce 16",
    "postcode": "31822",
    "nearResort": "3-Tre Vaneze",
    "distanceToResort_km": 4.5,
    "latitude": 46.0644782,
    "longitude": 11.1232307
  },
  {
    "restaurantId": 19,
    "osmId": "269348445",
    "name": "Albergo Dolomiti",
    "cuisine": "",
    "phone": "",
    "website": "",
    "municipality": "",
    "address": "",
    "postcode": "",
    "nearResort": "Pradis_ci",
    "distanceToResort_km": 4.3,
    "latitude": 46.1601698,
    "longitude": 11.2345535
  },
  {
    "restaurantId": 20,
    "osmId": "269356399",
    "name": "Pizzeria Anna",
    "cuisine": "",
    "phone": "",
    "website": "",
    "municipality": "",
    "address": "",
    "postcode": "",
    "nearResort": "Pradis_ci",
    "distanceToResort_km": 10.0,
    "latitude": 46.0683757,
    "longitude": 11.2539178
  },
  {
    "restaurantId": 21,
    "osmId": "269358770",
    "name": "Pizzeria 4 Venti",
    "cuisine": "",
    "phone": "",
    "website": "",
    "municipality": "",
    "address": "",
    "postcode": "",
    "nearResort": "Alpe Cermis",
    "distanceToResort_km": 10.0,
    "latitude": 46.2620421,
    "longitude": 11.3546478
  },
  {
    "restaurantId": 22,
    "osmId": "269512908",
    "name": "Pizzeria Primavera",
    "cuisine": "pizza",
    "phone": "+39 0461 239840",
    "website": "",
    "municipality": "Trento",
    "address": "Via del Suffragio 92",
    "postcode": "31822",
    "nearResort": "3-Tre Vaneze",
    "distanceToResort_km": 4.9,
    "latitude": 46.0707264,
    "longitude": 11.1246538
  },
  {
    "restaurantId": 23,
    "osmId": "271009437",
    "name": "Ristorante alle Foci da Rita",
    "cuisine": "regional",
    "phone": "",
    "website": "",
    "municipality": "",
    "address": "",
    "postcode": "",
    "nearResort": "Centro Sci di Fondo Chinaec",
    "distanceToResort_km": 7.9,
    "latitude": 45.9120449,
    "longitude": 10.8365826
  },
  {
    "restaurantId": 24,
    "osmId": "276665082",
    "name": "Piffinger Köpfl",
    "cuisine": "",
    "phone": "+39 0473 279 610",
    "website": "https://www.piffinger-koepfl.com/",
    "municipality": "Hafling - Avelengo",
    "address": "Piffingerweg - Via Piffing 16",
    "postcode": "39010",
    "nearResort": "Falzeben 2",
    "distanceToResort_km": 0.3,
    "latitude": 46.6769406,
    "longitude": 11.2554098
  },
  {
    "restaurantId": 25,
    "osmId": "276923561",
    "name": "New Lido - Ristorante Pinseria",
    "cuisine": "",
    "phone": "",
    "website": "",
    "municipality": "",
    "address": "",
    "postcode": "",
    "nearResort": "Pradis_ci",
    "distanceToResort_km": 3.4,
    "latitude": 46.1339585,
    "longitude": 11.2571178
  },
  {
    "restaurantId": 26,
    "osmId": "277697218",
    "name": "Dia Luna cafè pizzeria",
    "cuisine": "pizza",
    "phone": "+39 3517521236",
    "website": "",
    "municipality": "Pergine Valsugana",
    "address": "Via di Castel Rocca",
    "postcode": "38057",
    "nearResort": "Pradis_ci",
    "distanceToResort_km": 9.9,
    "latitude": 46.0848853,
    "longitude": 11.2100564
  },
  {
    "restaurantId": 27,
    "osmId": "278461430",
    "name": "Nagler",
    "cuisine": "",
    "phone": "",
    "website": "",
    "municipality": "",
    "address": "",
    "postcode": "",
    "nearResort": "Alta Badia Shop & Rental",
    "distanceToResort_km": 3.0,
    "latitude": 46.6102115,
    "longitude": 11.8940268
  },
  {
    "restaurantId": 28,
    "osmId": "278462651",
    "name": "San Linêrt",
    "cuisine": "italian_pizza;local",
    "phone": "",
    "website": "",
    "municipality": "",
    "address": "",
    "postcode": "",
    "nearResort": "Alta Badia Shop & Rental",
    "distanceToResort_km": 3.1,
    "latitude": 46.6112509,
    "longitude": 11.9000638
  },
  {
    "restaurantId": 29,
    "osmId": "281692703",
    "name": "Malga Salanzada",
    "cuisine": "regional",
    "phone": "",
    "website": "",
    "municipality": "",
    "address": "",
    "postcode": "",
    "nearResort": "Alpe Cermis",
    "distanceToResort_km": 2.1,
    "latitude": 46.272539,
    "longitude": 11.4638938
  },
  {
    "restaurantId": 30,
    "osmId": "282865095",
    "name": "Lorenzi Hütte",
    "cuisine": "",
    "phone": "+39 0474 592100",
    "website": "",
    "municipality": "",
    "address": "",
    "postcode": "",
    "nearResort": "Kronplatz - Plan de Corones",
    "distanceToResort_km": 4.9,
    "latitude": 46.744806,
    "longitude": 11.9909326
  },
  {
    "restaurantId": 31,
    "osmId": "285976123",
    "name": "Malga Cambroncoi",
    "cuisine": "regional",
    "phone": "",
    "website": "",
    "municipality": "",
    "address": "",
    "postcode": "",
    "nearResort": "Pradis_ci",
    "distanceToResort_km": 2.4,
    "latitude": 46.1360828,
    "longitude": 11.3065372
  },
  {
    "restaurantId": 32,
    "osmId": "286507919",
    "name": "Auerleger Alm - Malga Ora",
    "cuisine": "",
    "phone": "",
    "website": "",
    "municipality": "",
    "address": "",
    "postcode": "",
    "nearResort": "Passo Lavazè",
    "distanceToResort_km": 1.6,
    "latitude": 46.3537799,
    "longitude": 11.4654487
  },
  {
    "restaurantId": 33,
    "osmId": "286834621",
    "name": "Schliniger Alm - Malga Slingia",
    "cuisine": "regional",
    "phone": "",
    "website": "",
    "municipality": "",
    "address": "",
    "postcode": "",
    "nearResort": "Nordisches Skizentrum Schlinig - Centro sci nordico Slingia",
    "distanceToResort_km": 1.9,
    "latitude": 46.7201809,
    "longitude": 10.4533457
  },
  {
    "restaurantId": 34,
    "osmId": "287355831",
    "name": "Sandheim",
    "cuisine": "italian",
    "phone": "+39 0473 616166",
    "website": "https://www.sandheim.it/",
    "municipality": "",
    "address": "",
    "postcode": "",
    "nearResort": "7",
    "distanceToResort_km": 9.3,
    "latitude": 46.6241323,
    "longitude": 10.5959019
  },
  {
    "restaurantId": 35,
    "osmId": "288938675",
    "name": "Pizzeria OroStube",
    "cuisine": "pizza",
    "phone": "+39 0461 816073",
    "website": "https://orostube.it/",
    "municipality": "Trento",
    "address": "Via Sommarive 10",
    "postcode": "38123",
    "nearResort": "3-Tre Vaneze",
    "distanceToResort_km": 6.5,
    "latitude": 46.0647594,
    "longitude": 11.1504525
  },
  {
    "restaurantId": 36,
    "osmId": "289225782",
    "name": "La Botte",
    "cuisine": "",
    "phone": "",
    "website": "",
    "municipality": "Povo",
    "address": "Piazza Giannatonio Manci 14",
    "postcode": "38123",
    "nearResort": "3-Tre Vaneze",
    "distanceToResort_km": 6.9,
    "latitude": 46.0661234,
    "longitude": 11.1548195
  },
  {
    "restaurantId": 37,
    "osmId": "289741261",
    "name": "Gasthof Wieser",
    "cuisine": "italian;pizza",
    "phone": "+39 0471 615152",
    "website": "",
    "municipality": "",
    "address": "",
    "postcode": "",
    "nearResort": "Petersberg - Monte San Pietro",
    "distanceToResort_km": 0.3,
    "latitude": 46.3952497,
    "longitude": 11.3857603
  },
  {
    "restaurantId": 38,
    "osmId": "289741267",
    "name": "Gasthof Weber",
    "cuisine": "",
    "phone": "",
    "website": "",
    "municipality": "",
    "address": "",
    "postcode": "",
    "nearResort": "Petersberg - Monte San Pietro",
    "distanceToResort_km": 0.6,
    "latitude": 46.3966755,
    "longitude": 11.3944388
  },
  {
    "restaurantId": 39,
    "osmId": "289878227",
    "name": "Krone",
    "cuisine": "",
    "phone": "",
    "website": "https://www.gasthof-krone.it",
    "municipality": "",
    "address": "",
    "postcode": "",
    "nearResort": "Petersberg - Monte San Pietro",
    "distanceToResort_km": 3.8,
    "latitude": 46.3681076,
    "longitude": 11.3544362
  },
  {
    "restaurantId": 40,
    "osmId": "290831118",
    "name": "Pirchhof",
    "cuisine": "",
    "phone": "+39 0473 667812",
    "website": "http://www.pirchhof.com/",
    "municipality": "Naturns - Naturno",
    "address": "Sonnenberg-Monte Sole 77a",
    "postcode": "39025",
    "nearResort": "Pfelders Ski Resort",
    "distanceToResort_km": 14.6,
    "latitude": 46.6706,
    "longitude": 11.0066482
  },
  {
    "restaurantId": 41,
    "osmId": "290958323",
    "name": "Wiedenplatz",
    "cuisine": "",
    "phone": "",
    "website": "",
    "municipality": "",
    "address": "",
    "postcode": "",
    "nearResort": "Schwemmalm",
    "distanceToResort_km": 14.8,
    "latitude": 46.6568512,
    "longitude": 11.0130051
  },
  {
    "restaurantId": 42,
    "osmId": "290995383",
    "name": "Röt Alm",
    "cuisine": "",
    "phone": "",
    "website": "",
    "municipality": "",
    "address": "",
    "postcode": "",
    "nearResort": "Rein in Taufers - Riva di Tures",
    "distanceToResort_km": 11.7,
    "latitude": 47.0400333,
    "longitude": 12.1455906
  },
  {
    "restaurantId": 43,
    "osmId": "290998952",
    "name": "Agriturismo Ai molini",
    "cuisine": "regional",
    "phone": "+39 0461 651088",
    "website": "http://www.agrituraimolini.it/",
    "municipality": "",
    "address": "",
    "postcode": "",
    "nearResort": "La Rocca",
    "distanceToResort_km": 8.6,
    "latitude": 46.1929312,
    "longitude": 11.1566275
  },
  {
    "restaurantId": 44,
    "osmId": "291290003",
    "name": "Unterobereben",
    "cuisine": "regional",
    "phone": "",
    "website": "",
    "municipality": "",
    "address": "",
    "postcode": "",
    "nearResort": "Falzeben 2",
    "distanceToResort_km": 13.8,
    "latitude": 46.6587091,
    "longitude": 11.0736106
  },
  {
    "restaurantId": 45,
    "osmId": "292021580",
    "name": "Pizzeria Quattro Stagioni",
    "cuisine": "pizza",
    "phone": "+39 0461 987031",
    "website": "",
    "municipality": "Trento",
    "address": "Via San Vito 36",
    "postcode": "31821",
    "nearResort": "3-Tre Vaneze",
    "distanceToResort_km": 6.1,
    "latitude": 46.0753126,
    "longitude": 11.1378543
  },
  {
    "restaurantId": 46,
    "osmId": "292258759",
    "name": "Victor",
    "cuisine": "pizza;regional;italian",
    "phone": "",
    "website": "",
    "municipality": "",
    "address": "",
    "postcode": "",
    "nearResort": "",
    "distanceToResort_km": null,
    "latitude": 46.3381184,
    "longitude": 11.0633214
  },
  {
    "restaurantId": 47,
    "osmId": "292397135",
    "name": "Höchsterhütte am Grünsee - Rifugio Canziani al Lago Verde",
    "cuisine": "",
    "phone": "",
    "website": "",
    "municipality": "",
    "address": "",
    "postcode": "",
    "nearResort": "albl",
    "distanceToResort_km": 10.9,
    "latitude": 46.4825119,
    "longitude": 10.7990364
  },
  {
    "restaurantId": 48,
    "osmId": "292811263",
    "name": "Moar",
    "cuisine": "",
    "phone": "",
    "website": "",
    "municipality": "",
    "address": "",
    "postcode": "",
    "nearResort": "Mittager 1 - Catino 1",
    "distanceToResort_km": 14.1,
    "latitude": 46.5633788,
    "longitude": 11.3566442
  },
  {
    "restaurantId": 49,
    "osmId": "292811271",
    "name": "Hauser Berg",
    "cuisine": "",
    "phone": "",
    "website": "",
    "municipality": "",
    "address": "",
    "postcode": "",
    "nearResort": "Mittager 1 - Catino 1",
    "distanceToResort_km": 8.7,
    "latitude": 46.6105319,
    "longitude": 11.3387133
  },
  {
    "restaurantId": 50,
    "osmId": "292968510",
    "name": "Pizzeria Waldrast",
    "cuisine": "pizza",
    "phone": "+39 0471 886815",
    "website": "https://www.suedtirol.info/de/de/erlebnisse-und-events/plp-erlebnisse/erlebnisse-suedtirol/pdp-erlebnisse.smgpoib4145afb9ee0480ebd1e4fac835043b3.gasthaus-pizzeria-waldrast.aldein",
    "municipality": "",
    "address": "",
    "postcode": "",
    "nearResort": "Petersberg - Monte San Pietro",
    "distanceToResort_km": 3.6,
    "latitude": 46.3676799,
    "longitude": 11.3604029
  },
  {
    "restaurantId": 51,
    "osmId": "293599658",
    "name": "Jenesier Jöchl",
    "cuisine": "",
    "phone": "",
    "website": "",
    "municipality": "Jenesien - San Genesio Atesino",
    "address": "Kampideller Weg 22",
    "postcode": "39050",
    "nearResort": "Mittager 1 - Catino 1",
    "distanceToResort_km": 7.3,
    "latitude": 46.6171415,
    "longitude": 11.3080033
  },
  {
    "restaurantId": 52,
    "osmId": "293599663",
    "name": "Putzer Kreuz",
    "cuisine": "",
    "phone": "",
    "website": "",
    "municipality": "",
    "address": "",
    "postcode": "",
    "nearResort": "Mittager 1 - Catino 1",
    "distanceToResort_km": 7.2,
    "latitude": 46.6238284,
    "longitude": 11.3343245
  },
  {
    "restaurantId": 53,
    "osmId": "293599665",
    "name": "Steinmann",
    "cuisine": "",
    "phone": "",
    "website": "",
    "municipality": "",
    "address": "",
    "postcode": "",
    "nearResort": "",
    "distanceToResort_km": null,
    "latitude": 46.5495355,
    "longitude": 11.3705267
  },
  {
    "restaurantId": 54,
    "osmId": "293866039",
    "name": "Turismo",
    "cuisine": "",
    "phone": "",
    "website": "",
    "municipality": "",
    "address": "",
    "postcode": "",
    "nearResort": "Pradis_ci",
    "distanceToResort_km": 11.3,
    "latitude": 46.060124,
    "longitude": 11.237059
  },
  {
    "restaurantId": 55,
    "osmId": "296371541",
    "name": "Schleiser Alm - Malga di Clusio",
    "cuisine": "",
    "phone": "",
    "website": "http://www.alpwirtschaft.it/schleiseralm/index.html",
    "municipality": "",
    "address": "",
    "postcode": "",
    "nearResort": "Nordisches Skizentrum Schlinig - Centro sci nordico Slingia",
    "distanceToResort_km": 2.0,
    "latitude": 46.6914956,
    "longitude": 10.4546503
  },
  {
    "restaurantId": 56,
    "osmId": "298086066",
    "name": "Ristorante Ai Canopi",
    "cuisine": "indian;pizza;regional",
    "phone": "+39 0461 823663",
    "website": "https://www.ristorantiindianitrento.com/",
    "municipality": "Martignano",
    "address": "Via ai Bolleri 12/6",
    "postcode": "31821",
    "nearResort": "3-Tre Vaneze",
    "distanceToResort_km": 6.9,
    "latitude": 46.0939699,
    "longitude": 11.1305891
  },
  {
    "restaurantId": 57,
    "osmId": "298274280",
    "name": "Caffe Terzer",
    "cuisine": "",
    "phone": "",
    "website": "",
    "municipality": "",
    "address": "",
    "postcode": "",
    "nearResort": "",
    "distanceToResort_km": null,
    "latitude": 46.3145139,
    "longitude": 11.222677
  },
  {
    "restaurantId": 58,
    "osmId": "298274283",
    "name": "Schwarz Adler Keller",
    "cuisine": "",
    "phone": "",
    "website": "",
    "municipality": "",
    "address": "",
    "postcode": "",
    "nearResort": "",
    "distanceToResort_km": null,
    "latitude": 46.3132532,
    "longitude": 11.2235354
  },
  {
    "restaurantId": 59,
    "osmId": "298467485",
    "name": "Lyfialm - Malga Lifi",
    "cuisine": "",
    "phone": "",
    "website": "",
    "municipality": "",
    "address": "",
    "postcode": "",
    "nearResort": "Sulden am Ortler - Solda al Ortles",
    "distanceToResort_km": 8.0,
    "latitude": 46.5037984,
    "longitude": 10.7029948
  },
  {
    "restaurantId": 60,
    "osmId": "298531963",
    "name": "Matscher Alm - Malga die Mazia",
    "cuisine": "",
    "phone": "+39 349 6885545",
    "website": "",
    "municipality": "Matsch",
    "address": "Matschertal",
    "postcode": "39024",
    "nearResort": "Val Senales-Schnalstal",
    "distanceToResort_km": 8.2,
    "latitude": 46.7397431,
    "longitude": 10.6903841
  },
  {
    "restaurantId": 61,
    "osmId": "299495914",
    "name": "Reinerhof",
    "cuisine": "",
    "phone": "+39 0474 67252",
    "website": "",
    "municipality": "",
    "address": "Rein 64",
    "postcode": "39030",
    "nearResort": "Rein in Taufers - Riva di Tures",
    "distanceToResort_km": 0.3,
    "latitude": 46.9486223,
    "longitude": 12.0612299
  },
  {
    "restaurantId": 62,
    "osmId": "299497543",
    "name": "Jausenstation Säge",
    "cuisine": "pizza",
    "phone": "",
    "website": "",
    "municipality": "",
    "address": "",
    "postcode": "",
    "nearResort": "Rein in Taufers - Riva di Tures",
    "distanceToResort_km": 2.1,
    "latitude": 46.9408434,
    "longitude": 12.0861525
  },
  {
    "restaurantId": 63,
    "osmId": "299499529",
    "name": "Untermaureralm",
    "cuisine": "",
    "phone": "",
    "website": "",
    "municipality": "",
    "address": "",
    "postcode": "",
    "nearResort": "Speikboden",
    "distanceToResort_km": 9.1,
    "latitude": 46.9523664,
    "longitude": 11.7828471
  },
  {
    "restaurantId": 64,
    "osmId": "299927723",
    "name": "Rifugio Ghedina",
    "cuisine": "",
    "phone": "+39 0465 321808",
    "website": "https://www.trentinorifugi.com/index.php?bsclef=schede_rifugi&ex=html&viewnews=ok&ln=it&id=76&catid=6",
    "municipality": "",
    "address": "",
    "postcode": "38070",
    "nearResort": "Skiweg Fossadei - Cioca 2",
    "distanceToResort_km": 6.4,
    "latitude": 46.1158602,
    "longitude": 10.8085216
  },
  {
    "restaurantId": 65,
    "osmId": "301746888",
    "name": "Tisenhof",
    "cuisine": "",
    "phone": "",
    "website": "",
    "municipality": "",
    "address": "",
    "postcode": "",
    "nearResort": "Val Senales-Schnalstal",
    "distanceToResort_km": 5.7,
    "latitude": 46.7401978,
    "longitude": 10.8461397
  },
  {
    "restaurantId": 66,
    "osmId": "301860749",
    "name": "Speck & Schnapsalm",
    "cuisine": "",
    "phone": "",
    "website": "http://www.speck-schnapsalm.com/",
    "municipality": "",
    "address": "",
    "postcode": "",
    "nearResort": "Klausberg - Monte Chiusetta",
    "distanceToResort_km": 0.6,
    "latitude": 46.9764822,
    "longitude": 11.9875786
  },
  {
    "restaurantId": 67,
    "osmId": "301868747",
    "name": "Schönbergalm",
    "cuisine": "",
    "phone": "",
    "website": "",
    "municipality": "",
    "address": "",
    "postcode": "",
    "nearResort": "Speikboden",
    "distanceToResort_km": 3.1,
    "latitude": 46.9622586,
    "longitude": 11.89244
  },
  {
    "restaurantId": 68,
    "osmId": "301876884",
    "name": "Tratter Alm",
    "cuisine": "",
    "phone": "",
    "website": "",
    "municipality": "",
    "address": "",
    "postcode": "",
    "nearResort": "Speikboden",
    "distanceToResort_km": 5.6,
    "latitude": 46.9643171,
    "longitude": 11.8390266
  },
  {
    "restaurantId": 69,
    "osmId": "301876885",
    "name": "Göge Alm",
    "cuisine": "",
    "phone": "+39 0474 646313",
    "website": "https://www.ausserhof.it/de/goege-alm.php",
    "municipality": "",
    "address": "Innertal 125",
    "postcode": "",
    "nearResort": "Speikboden",
    "distanceToResort_km": 6.0,
    "latitude": 46.9618911,
    "longitude": 11.8305789
  },
  {
    "restaurantId": 70,
    "osmId": "302413044",
    "name": "Viel Nois",
    "cuisine": "pizza;regional;italian",
    "phone": "+39 0472 840526",
    "website": "https://www.vielnois.com/",
    "municipality": "",
    "address": "",
    "postcode": "",
    "nearResort": "Brixen Plose - Plose di Bressanone",
    "distanceToResort_km": 5.7,
    "latitude": 46.6418765,
    "longitude": 11.6814215
  },
  {
    "restaurantId": 71,
    "osmId": "302415384",
    "name": "Waldschenke",
    "cuisine": "regional;pizza",
    "phone": "+39 320 3137332;+39 333 4984870",
    "website": "https://www.restaurant-waldschenke.com/",
    "municipality": "",
    "address": "St. Johann - San Giovanni 3",
    "postcode": "",
    "nearResort": "Brixen Plose - Plose di Bressanone",
    "distanceToResort_km": 6.2,
    "latitude": 46.6334345,
    "longitude": 11.7282696
  },
  {
    "restaurantId": 72,
    "osmId": "302730973",
    "name": "Cadino",
    "cuisine": "fish;pizza;regional",
    "phone": "+39 0461 650136",
    "website": "",
    "municipality": "",
    "address": "Località Cadino 2",
    "postcode": "",
    "nearResort": "La Rocca",
    "distanceToResort_km": 9.5,
    "latitude": 46.2178798,
    "longitude": 11.1531916
  },
  {
    "restaurantId": 73,
    "osmId": "303826370",
    "name": "Pizzeria Millenium",
    "cuisine": "pizza",
    "phone": "",
    "website": "",
    "municipality": "",
    "address": "",
    "postcode": "",
    "nearResort": "Latemar Dolomites",
    "distanceToResort_km": 6.0,
    "latitude": 46.3093023,
    "longitude": 11.6013606
  },
  {
    "restaurantId": 74,
    "osmId": "303828168",
    "name": "Pizzeria L'arcade",
    "cuisine": "austrian;beef_bowl;fine_dining;pizza",
    "phone": "",
    "website": "",
    "municipality": "",
    "address": "",
    "postcode": "",
    "nearResort": "Latemar Dolomites",
    "distanceToResort_km": 5.9,
    "latitude": 46.3109049,
    "longitude": 11.6028261
  },
  {
    "restaurantId": 75,
    "osmId": "303832096",
    "name": "Majestic",
    "cuisine": "",
    "phone": "+390462501997",
    "website": "https://www.ristorantemajestic.it/",
    "municipality": "",
    "address": "",
    "postcode": "",
    "nearResort": "Latemar Dolomites",
    "distanceToResort_km": 6.1,
    "latitude": 46.3065591,
    "longitude": 11.5985512
  },
  {
    "restaurantId": 76,
    "osmId": "304632628",
    "name": "Pizzeria Ristorante Belvedere",
    "cuisine": "",
    "phone": "+39 0465 440396",
    "website": "https://campigliobelvedere.wixsite.com/belvedere",
    "municipality": "",
    "address": "",
    "postcode": "",
    "nearResort": "Campiglio Dolomiti di Brenta",
    "distanceToResort_km": 1.8,
    "latitude": 46.2320688,
    "longitude": 10.8274323
  },
  {
    "restaurantId": 77,
    "osmId": "304632837",
    "name": "Ristorante Pizzeria Le Roi",
    "cuisine": "",
    "phone": "",
    "website": "",
    "municipality": "",
    "address": "",
    "postcode": "",
    "nearResort": "Campiglio Dolomiti di Brenta",
    "distanceToResort_km": 1.9,
    "latitude": 46.2325953,
    "longitude": 10.8254299
  },
  {
    "restaurantId": 78,
    "osmId": "305577577",
    "name": "Kaserfeld-Alm",
    "cuisine": "regional",
    "phone": "",
    "website": "",
    "municipality": "",
    "address": "",
    "postcode": "",
    "nearResort": "albl",
    "distanceToResort_km": 3.3,
    "latitude": 46.507947,
    "longitude": 10.8917112
  },
  {
    "restaurantId": 79,
    "osmId": "308301683",
    "name": "Birkenwald",
    "cuisine": "austrian;buschenschank;german;italian",
    "phone": "+39 0473 968356",
    "website": "",
    "municipality": "",
    "address": "",
    "postcode": "",
    "nearResort": "Pfelders Ski Resort",
    "distanceToResort_km": 11.1,
    "latitude": 46.6920656,
    "longitude": 11.0547553
  },
  {
    "restaurantId": 80,
    "osmId": "309615997",
    "name": "Raststation Haidepark",
    "cuisine": "",
    "phone": "",
    "website": "",
    "municipality": "",
    "address": "",
    "postcode": "",
    "nearResort": "Watles - Vatles",
    "distanceToResort_km": 3.2,
    "latitude": 46.717748,
    "longitude": 10.5372698
  },
  {
    "restaurantId": 81,
    "osmId": "309946873",
    "name": "Culinaria living",
    "cuisine": "regional",
    "phone": "+39 0473 923508",
    "website": "",
    "municipality": "",
    "address": "",
    "postcode": "",
    "nearResort": "Falzeben 2",
    "distanceToResort_km": 8.5,
    "latitude": 46.6998012,
    "longitude": 11.1462273
  },
  {
    "restaurantId": 82,
    "osmId": "310438217",
    "name": "Saxalb Alm - Malga di Sassalbo",
    "cuisine": "",
    "phone": "",
    "website": "",
    "municipality": "",
    "address": "",
    "postcode": "",
    "nearResort": "Val Senales-Schnalstal",
    "distanceToResort_km": 14.4,
    "latitude": 46.6777736,
    "longitude": 10.916148
  },
  {
    "restaurantId": 83,
    "osmId": "310438220",
    "name": "Klosteralm - Malga del Convento",
    "cuisine": "",
    "phone": "+39 329 6785550",
    "website": "",
    "municipality": "Schnals - Senales",
    "address": "",
    "postcode": "",
    "nearResort": "Val Senales-Schnalstal",
    "distanceToResort_km": 13.0,
    "latitude": 46.6864563,
    "longitude": 10.9032101
  },
  {
    "restaurantId": 84,
    "osmId": "310461412",
    "name": "Graf Alm",
    "cuisine": "",
    "phone": "",
    "website": "",
    "municipality": "",
    "address": "",
    "postcode": "",
    "nearResort": "Val Senales-Schnalstal",
    "distanceToResort_km": 10.4,
    "latitude": 46.735277,
    "longitude": 10.9121306
  },
  {
    "restaurantId": 85,
    "osmId": "310468986",
    "name": "Stafler Alm - Malga Stafler (Scaglioni)",
    "cuisine": "",
    "phone": "",
    "website": "",
    "municipality": "",
    "address": "",
    "postcode": "",
    "nearResort": "Schwemmalm",
    "distanceToResort_km": 11.4,
    "latitude": 46.5992023,
    "longitude": 11.0491402
  },
  {
    "restaurantId": 86,
    "osmId": "310469786",
    "name": "Familyalm Gampl - Albergo Gampl",
    "cuisine": "",
    "phone": "+39 0473 562014",
    "website": "https://www.familyparadies.com/",
    "municipality": "",
    "address": "",
    "postcode": "",
    "nearResort": "Falzeben 2",
    "distanceToResort_km": 13.0,
    "latitude": 46.6330082,
    "longitude": 11.0938804
  },
  {
    "restaurantId": 87,
    "osmId": "310670722",
    "name": "Gasthaus Gramegg",
    "cuisine": "",
    "phone": "+39 0473 967425",
    "website": "",
    "municipality": "",
    "address": "Vinschgauerstraße 35",
    "postcode": "39022",
    "nearResort": "Falzeben 2",
    "distanceToResort_km": 11.9,
    "latitude": 46.6714059,
    "longitude": 11.0968892
  },
  {
    "restaurantId": 88,
    "osmId": "313207106",
    "name": "Jausenstation Greitwies",
    "cuisine": "regional",
    "phone": "+39 0473 563376",
    "website": "http://www.greitwies.it/",
    "municipality": "",
    "address": "Pawigl 3",
    "postcode": "39011",
    "nearResort": "Falzeben 2",
    "distanceToResort_km": 12.6,
    "latitude": 46.6171997,
    "longitude": 11.1114126
  },
  {
    "restaurantId": 89,
    "osmId": "317526677",
    "name": "Paoli Hotel - Antica Trattoria alla Vedova",
    "cuisine": "",
    "phone": "",
    "website": "",
    "municipality": "",
    "address": "",
    "postcode": "",
    "nearResort": "Lait primi passi 1-2",
    "distanceToResort_km": 3.4,
    "latitude": 45.9886994,
    "longitude": 11.3006401
  },
  {
    "restaurantId": 90,
    "osmId": "319917018",
    "name": "Agritur Le Vallene",
    "cuisine": "regional",
    "phone": "",
    "website": "",
    "municipality": "",
    "address": "",
    "postcode": "",
    "nearResort": "Panoramica",
    "distanceToResort_km": 3.6,
    "latitude": 46.1121336,
    "longitude": 11.0470198
  },
  {
    "restaurantId": 91,
    "osmId": "322895287",
    "name": "La Trattoria",
    "cuisine": "",
    "phone": "",
    "website": "",
    "municipality": "",
    "address": "",
    "postcode": "",
    "nearResort": "Alpe Cermis",
    "distanceToResort_km": 3.9,
    "latitude": 46.2825141,
    "longitude": 11.5229928
  },
  {
    "restaurantId": 92,
    "osmId": "329525749",
    "name": "Seeberger",
    "cuisine": "",
    "phone": "",
    "website": "",
    "municipality": "",
    "address": "",
    "postcode": "",
    "nearResort": "Petersberg - Monte San Pietro",
    "distanceToResort_km": 14.2,
    "latitude": 46.5196548,
    "longitude": 11.3621034
  },
  {
    "restaurantId": 93,
    "osmId": "330499384",
    "name": "Ristorante Pizzeria Pernhof",
    "cuisine": "pizza",
    "phone": "",
    "website": "",
    "municipality": "",
    "address": "",
    "postcode": "",
    "nearResort": "Petersberg - Monte San Pietro",
    "distanceToResort_km": 12.9,
    "latitude": 46.3397953,
    "longitude": 11.2392352
  },
  {
    "restaurantId": 94,
    "osmId": "333783337",
    "name": "Al cervo",
    "cuisine": "regional",
    "phone": "",
    "website": "",
    "municipality": "",
    "address": "",
    "postcode": "",
    "nearResort": "Biancaneve",
    "distanceToResort_km": 1.7,
    "latitude": 46.3149326,
    "longitude": 10.8125093
  },
  {
    "restaurantId": 95,
    "osmId": "333791569",
    "name": "La Cantina di Suisse",
    "cuisine": "regional",
    "phone": "",
    "website": "",
    "municipality": "",
    "address": "",
    "postcode": "",
    "nearResort": "Campiglio Dolomiti di Brenta",
    "distanceToResort_km": 1.9,
    "latitude": 46.230922,
    "longitude": 10.8265841
  },
  {
    "restaurantId": 96,
    "osmId": "335596730",
    "name": "Tana del Barba",
    "cuisine": "regional;pizza;steak_house;grilled_meat",
    "phone": "",
    "website": "",
    "municipality": "Malé",
    "address": "Piazza Regina Elena",
    "postcode": "38027",
    "nearResort": "Folgarida-Marilleva",
    "distanceToResort_km": 8.9,
    "latitude": 46.3525109,
    "longitude": 10.912659
  },
  {
    "restaurantId": 97,
    "osmId": "341091742",
    "name": "Osteria Al Travaion",
    "cuisine": "",
    "phone": "",
    "website": "",
    "municipality": "",
    "address": "",
    "postcode": "",
    "nearResort": "La Rocca",
    "distanceToResort_km": 5.8,
    "latitude": 46.2155184,
    "longitude": 11.0870302
  },
  {
    "restaurantId": 98,
    "osmId": "349238903",
    "name": "L'Fana",
    "cuisine": "italian",
    "phone": "+390471847025",
    "website": "https://www.lfana.com/",
    "municipality": "",
    "address": "",
    "postcode": "",
    "nearResort": "Alta Badia Shop & Rental",
    "distanceToResort_km": 0.1,
    "latitude": 46.5846269,
    "longitude": 11.9047592
  },
  {
    "restaurantId": 99,
    "osmId": "355968440",
    "name": "Capriccio",
    "cuisine": "pizza;regional",
    "phone": "+39 0461 650699",
    "website": "",
    "municipality": "San Michele all'Adige",
    "address": "Via Don A. Tamanini 47",
    "postcode": "38098",
    "nearResort": "La Rocca",
    "distanceToResort_km": 6.4,
    "latitude": 46.1891991,
    "longitude": 11.1287253
  },
  {
    "restaurantId": 100,
    "osmId": "358841673",
    "name": "Pub Pizzeria Weinstraße",
    "cuisine": "pizza",
    "phone": "",
    "website": "http://www.pizzeria-weinstrasse.it/",
    "municipality": "",
    "address": "",
    "postcode": "",
    "nearResort": "Petersberg - Monte San Pietro",
    "distanceToResort_km": 14.5,
    "latitude": 46.3202489,
    "longitude": 11.231951
  },
  {
    "restaurantId": 101,
    "osmId": "360171370",
    "name": "Zur Rose",
    "cuisine": "",
    "phone": "",
    "website": "",
    "municipality": "",
    "address": "",
    "postcode": "",
    "nearResort": "",
    "distanceToResort_km": null,
    "latitude": 46.3127345,
    "longitude": 11.2214485
  },
  {
    "restaurantId": 102,
    "osmId": "362792011",
    "name": "Nassreidhof",
    "cuisine": "regional",
    "phone": "+39 0473 679233",
    "website": "http://www.nassreidhof.it/",
    "municipality": "Schnals-Senales",
    "address": "Pfossental 9",
    "postcode": "",
    "nearResort": "Val Senales-Schnalstal",
    "distanceToResort_km": 12.1,
    "latitude": 46.7245759,
    "longitude": 10.9299696
  },
  {
    "restaurantId": 103,
    "osmId": "363578299",
    "name": "Pizzeria Credai",
    "cuisine": "pizza",
    "phone": "",
    "website": "",
    "municipality": "",
    "address": "",
    "postcode": "",
    "nearResort": "",
    "distanceToResort_km": null,
    "latitude": 46.3426856,
    "longitude": 11.1276835
  },
  {
    "restaurantId": 104,
    "osmId": "363579455",
    "name": "Agritur Agostini",
    "cuisine": "",
    "phone": "",
    "website": "",
    "municipality": "",
    "address": "",
    "postcode": "",
    "nearResort": "",
    "distanceToResort_km": null,
    "latitude": 46.364743,
    "longitude": 11.1000197
  },
  {
    "restaurantId": 105,
    "osmId": "363786299",
    "name": "Pizzeria Cafe Seidner",
    "cuisine": "pizza",
    "phone": "",
    "website": "",
    "municipality": "Sterzing - Vipiteno",
    "address": "",
    "postcode": "",
    "nearResort": "Rosskopf",
    "distanceToResort_km": 2.2,
    "latitude": 46.8979539,
    "longitude": 11.4328092
  },
  {
    "restaurantId": 106,
    "osmId": "363791505",
    "name": "Lorenz",
    "cuisine": "italian",
    "phone": "",
    "website": "https://www.hotellorenz.com/",
    "municipality": "",
    "address": "",
    "postcode": "",
    "nearResort": "Rosskopf",
    "distanceToResort_km": 4.3,
    "latitude": 46.9356365,
    "longitude": 11.4462649
  },
  {
    "restaurantId": 107,
    "osmId": "365499674",
    "name": "NoFormat",
    "cuisine": "pizza",
    "phone": "+39 0461 829523",
    "website": "https://pizzerianoformat.it/",
    "municipality": "Trento",
    "address": "Via dei Solteri 39/9",
    "postcode": "31821",
    "nearResort": "3-Tre Vaneze",
    "distanceToResort_km": 6.0,
    "latitude": 46.0882875,
    "longitude": 11.1211946
  },
  {
    "restaurantId": 108,
    "osmId": "369568235",
    "name": "Agritur Calvola",
    "cuisine": "regional",
    "phone": "+39 348 5502645",
    "website": "http://www.agriturcalvola.it/",
    "municipality": "",
    "address": "Via Villa Calvola 62",
    "postcode": "38060",
    "nearResort": "Centro Sci di Fondo Chinaec",
    "distanceToResort_km": 7.4,
    "latitude": 45.9256591,
    "longitude": 10.8322504
  },
  {
    "restaurantId": 109,
    "osmId": "385123328",
    "name": "Bergrestaurant Breiteben",
    "cuisine": "",
    "phone": "",
    "website": "",
    "municipality": "",
    "address": "",
    "postcode": "",
    "nearResort": "Schwemmalm",
    "distanceToResort_km": 0.6,
    "latitude": 46.5417277,
    "longitude": 10.9321044
  },
  {
    "restaurantId": 110,
    "osmId": "385123329",
    "name": "Jausenstation Lärchegg",
    "cuisine": "regional",
    "phone": "",
    "website": "",
    "municipality": "",
    "address": "",
    "postcode": "",
    "nearResort": "Schwemmalm",
    "distanceToResort_km": 0.5,
    "latitude": 46.5412309,
    "longitude": 10.9313462
  },
  {
    "restaurantId": 111,
    "osmId": "385123330",
    "name": "Bergrestaurant Schwemmalm - Ristorante di montagna Malga Guazza",
    "cuisine": "",
    "phone": "",
    "website": "",
    "municipality": "",
    "address": "",
    "postcode": "",
    "nearResort": "Schwemmalm",
    "distanceToResort_km": 1.0,
    "latitude": 46.5324376,
    "longitude": 10.9181448
  },
  {
    "restaurantId": 112,
    "osmId": "388930801",
    "name": "La Lanterna",
    "cuisine": "pizza",
    "phone": "",
    "website": "",
    "municipality": "",
    "address": "",
    "postcode": "",
    "nearResort": "Jochgrimm",
    "distanceToResort_km": 5.0,
    "latitude": 46.3001554,
    "longitude": 11.4475121
  },
  {
    "restaurantId": 113,
    "osmId": "388981198",
    "name": "Agritur Zanon",
    "cuisine": "regional",
    "phone": "",
    "website": "",
    "municipality": "",
    "address": "",
    "postcode": "",
    "nearResort": "Alpe Cermis",
    "distanceToResort_km": 4.2,
    "latitude": 46.2965692,
    "longitude": 11.4994485
  },
  {
    "restaurantId": 114,
    "osmId": "392944495",
    "name": "Moschwaldalm",
    "cuisine": "regional",
    "phone": "",
    "website": "",
    "municipality": "",
    "address": "",
    "postcode": "",
    "nearResort": "Falzeben 2",
    "distanceToResort_km": 1.5,
    "latitude": 46.6634873,
    "longitude": 11.2578012
  },
  {
    "restaurantId": 115,
    "osmId": "393197242",
    "name": "Kollerhof",
    "cuisine": "italian",
    "phone": "",
    "website": "",
    "municipality": "",
    "address": "",
    "postcode": "",
    "nearResort": "Petersberg - Monte San Pietro",
    "distanceToResort_km": 12.1,
    "latitude": 46.3111772,
    "longitude": 11.283871
  },
  {
    "restaurantId": 116,
    "osmId": "404344018",
    "name": "Skihaus Schöneben",
    "cuisine": "",
    "phone": "+39 3402655124",
    "website": "https://www.skihaus-schoeneben.it",
    "municipality": "Reschen",
    "address": "Hauptstraße 21",
    "postcode": "39027",
    "nearResort": "Schöneben - Belpiano",
    "distanceToResort_km": 1.6,
    "latitude": 46.8044286,
    "longitude": 10.4893448
  },
  {
    "restaurantId": 117,
    "osmId": "410827582",
    "name": "Pizzeria Kirchsteiger",
    "cuisine": "",
    "phone": "+39 0473 609580",
    "website": "https://www.restaurant-kirchsteiger.it/",
    "municipality": "Meran - Merano",
    "address": "Dantestraße 22",
    "postcode": "39012",
    "nearResort": "Falzeben 2",
    "distanceToResort_km": 6.1,
    "latitude": 46.6682388,
    "longitude": 11.1736621
  },
  {
    "restaurantId": 118,
    "osmId": "411324029",
    "name": "Alpenrose",
    "cuisine": "regional",
    "phone": "+390473278060",
    "website": "https://www.gasthofalpenrose.com/",
    "municipality": "",
    "address": "Vöranerstraße 1",
    "postcode": "",
    "nearResort": "Falzeben 2",
    "distanceToResort_km": 6.4,
    "latitude": 46.625858,
    "longitude": 11.2110877
  },
  {
    "restaurantId": 119,
    "osmId": "411676566",
    "name": "Gasthof Ungericht",
    "cuisine": "regional",
    "phone": "+39 0473 241112",
    "website": "https://www.ungerichthof.it/",
    "municipality": "",
    "address": "",
    "postcode": "",
    "nearResort": "Falzeben 2",
    "distanceToResort_km": 7.0,
    "latitude": 46.7003926,
    "longitude": 11.1672927
  },
  {
    "restaurantId": 120,
    "osmId": "415504641",
    "name": "Dolomiti",
    "cuisine": "pizza;regional",
    "phone": "",
    "website": "http://www.ristorantedolomiti.it",
    "municipality": "",
    "address": "",
    "postcode": "",
    "nearResort": "Folgarida-Marilleva",
    "distanceToResort_km": 4.2,
    "latitude": 46.3256919,
    "longitude": 10.8611651
  },
  {
    "restaurantId": 121,
    "osmId": "416691922",
    "name": "Gasthof zum Löwen",
    "cuisine": "",
    "phone": "",
    "website": "https://www.hotel-loewen.it/zum-loewen-p1.html",
    "municipality": "",
    "address": "",
    "postcode": "",
    "nearResort": "27",
    "distanceToResort_km": 4.7,
    "latitude": 46.776349,
    "longitude": 11.689844
  },
  {
    "restaurantId": 122,
    "osmId": "416983481",
    "name": "Al Mas",
    "cuisine": "regional;italian;steak_house",
    "phone": "+39 0461 557540",
    "website": "",
    "municipality": "",
    "address": "",
    "postcode": "",
    "nearResort": "Pradis_ci",
    "distanceToResort_km": 4.2,
    "latitude": 46.1231693,
    "longitude": 11.2595873
  },
  {
    "restaurantId": 123,
    "osmId": "417200226",
    "name": "Köstenthaler-Hof",
    "cuisine": "regional",
    "phone": "+39 0473 945831",
    "website": "http://koestenthaler.com",
    "municipality": "",
    "address": "Hofweg 3",
    "postcode": "",
    "nearResort": "Falzeben 2",
    "distanceToResort_km": 4.7,
    "latitude": 46.7020612,
    "longitude": 11.203375
  },
  {
    "restaurantId": 124,
    "osmId": "417675381",
    "name": "Angi",
    "cuisine": "italian",
    "phone": "",
    "website": "",
    "municipality": "Pergine Valsugana",
    "address": "Via dell'Angi 61",
    "postcode": "38057",
    "nearResort": "Le Cogole",
    "distanceToResort_km": 10.9,
    "latitude": 46.0471016,
    "longitude": 11.2333835
  },
  {
    "restaurantId": 125,
    "osmId": "417856704",
    "name": "Pizzeria Botti",
    "cuisine": "pizza",
    "phone": "+39 0464 432521",
    "website": "https://www.pizzeriabotti.it/",
    "municipality": "Rovereto",
    "address": "Corso Verona 76",
    "postcode": "38068",
    "nearResort": "Campeggio",
    "distanceToResort_km": 13.0,
    "latitude": 45.8751426,
    "longitude": 11.0335673
  },
  {
    "restaurantId": 126,
    "osmId": "418013504",
    "name": "Angereralm - Malga Angerer",
    "cuisine": "",
    "phone": "",
    "website": "",
    "municipality": "",
    "address": "",
    "postcode": "",
    "nearResort": "Kronplatz - Plan de Corones",
    "distanceToResort_km": 8.1,
    "latitude": 46.7428527,
    "longitude": 12.0386879
  },
  {
    "restaurantId": 127,
    "osmId": "418013950",
    "name": "Ütia Fojedöra - Hochalm",
    "cuisine": "regional",
    "phone": "+39 340 8713719",
    "website": "",
    "municipality": "",
    "address": "",
    "postcode": "",
    "nearResort": "Kronplatz - Plan de Corones",
    "distanceToResort_km": 9.7,
    "latitude": 46.7014351,
    "longitude": 12.0164157
  },
  {
    "restaurantId": 128,
    "osmId": "418014079",
    "name": "Lanzwiese Alm - Malga Lanzwiese",
    "cuisine": "",
    "phone": "",
    "website": "",
    "municipality": "",
    "address": "",
    "postcode": "",
    "nearResort": "Kronplatz - Plan de Corones",
    "distanceToResort_km": 8.1,
    "latitude": 46.730617,
    "longitude": 12.0281941
  },
  {
    "restaurantId": 129,
    "osmId": "418014829",
    "name": "Christl",
    "cuisine": "pizza;regional;italian",
    "phone": "+39 0474 498212",
    "website": "https://www.christl.bz/",
    "municipality": "",
    "address": "Kerlastraße - Via Kerla 1a",
    "postcode": "",
    "nearResort": "Kronplatz - Plan de Corones",
    "distanceToResort_km": 6.8,
    "latitude": 46.7616011,
    "longitude": 12.0288037
  },
  {
    "restaurantId": 130,
    "osmId": "418590055",
    "name": "Lobishof",
    "cuisine": "regional",
    "phone": "",
    "website": "https://www.lobishof.com/de/gasthaus-restaurant-ritten.htm",
    "municipality": "",
    "address": "",
    "postcode": "",
    "nearResort": "",
    "distanceToResort_km": null,
    "latitude": 46.5484338,
    "longitude": 11.4124084
  },
  {
    "restaurantId": 131,
    "osmId": "418867389",
    "name": "Guggerhof",
    "cuisine": "regional",
    "phone": "",
    "website": "",
    "municipality": "",
    "address": "",
    "postcode": "",
    "nearResort": "Brixen Plose - Plose di Bressanone",
    "distanceToResort_km": 5.1,
    "latitude": 46.7220791,
    "longitude": 11.6687316
  },
  {
    "restaurantId": 132,
    "osmId": "419839554",
    "name": "Schneidalm",
    "cuisine": "regional",
    "phone": "",
    "website": "",
    "municipality": "Moos in Passeier - Moso in Passiria",
    "address": "",
    "postcode": "39013",
    "nearResort": "Pfelders Ski Resort",
    "distanceToResort_km": 1.9,
    "latitude": 46.798417,
    "longitude": 11.0719387
  },
  {
    "restaurantId": 133,
    "osmId": "419843321",
    "name": "Gasthaus Gerstgras",
    "cuisine": "",
    "phone": "",
    "website": "",
    "municipality": "",
    "address": "",
    "postcode": "",
    "nearResort": "Val Senales-Schnalstal",
    "distanceToResort_km": 4.5,
    "latitude": 46.733487,
    "longitude": 10.803875
  },
  {
    "restaurantId": 134,
    "osmId": "420205216",
    "name": "Huberhof",
    "cuisine": "",
    "phone": "+390472855479",
    "website": "https://restaurants.st/it/gastronomia/gasthaus-huber-chiusa-p6654",
    "municipality": "",
    "address": "",
    "postcode": "",
    "nearResort": "Loipe Panider Sattel - Pista Passo Pinei",
    "distanceToResort_km": 8.8,
    "latitude": 46.6506412,
    "longitude": 11.571443
  },
  {
    "restaurantId": 135,
    "osmId": "420387418",
    "name": "Mittelgrünwald",
    "cuisine": "buschenschank",
    "phone": "+39 0471 352784",
    "website": "https://www.suedtirol.info/en/experience/mittelgrunwald-manuelas-jausenstation_activity_1106613",
    "municipality": "",
    "address": "",
    "postcode": "",
    "nearResort": "Plankenhorn",
    "distanceToResort_km": 11.5,
    "latitude": 46.5878981,
    "longitude": 11.4287101
  },
  {
    "restaurantId": 136,
    "osmId": "420409438",
    "name": "Grünboden Hütte",
    "cuisine": "regional",
    "phone": "",
    "website": "",
    "municipality": "",
    "address": "",
    "postcode": "",
    "nearResort": "Pfelders Ski Resort",
    "distanceToResort_km": 0.7,
    "latitude": 46.790883,
    "longitude": 11.1006402
  },
  {
    "restaurantId": 137,
    "osmId": "420411740",
    "name": "Tappeiner Alm - Malga Tappein",
    "cuisine": "",
    "phone": "",
    "website": "",
    "municipality": "",
    "address": "",
    "postcode": "",
    "nearResort": "Val Senales-Schnalstal",
    "distanceToResort_km": 13.7,
    "latitude": 46.6489335,
    "longitude": 10.7943919
  },
  {
    "restaurantId": 138,
    "osmId": "420414240",
    "name": "Tanaser Stierhütte",
    "cuisine": "",
    "phone": "",
    "website": "",
    "municipality": "",
    "address": "",
    "postcode": "",
    "nearResort": "Watles - Vatles",
    "distanceToResort_km": 13.8,
    "latitude": 46.6628071,
    "longitude": 10.6638576
  },
  {
    "restaurantId": 139,
    "osmId": "420772564",
    "name": "Gasthof Seppi",
    "cuisine": "regional",
    "phone": "+39 0472 849701",
    "website": "www.gasthof-seppi.it/",
    "municipality": "Mühlbach - Rio di Pusteria",
    "address": "Richtergasse 1",
    "postcode": "39037",
    "nearResort": "27",
    "distanceToResort_km": 1.9,
    "latitude": 46.7962263,
    "longitude": 11.6665785
  },
  {
    "restaurantId": 140,
    "osmId": "420781371",
    "name": "Le Bistro Arc",
    "cuisine": "pizza",
    "phone": "",
    "website": "",
    "municipality": "",
    "address": "",
    "postcode": "39031",
    "nearResort": "Kronplatz - Plan de Corones",
    "distanceToResort_km": 2.5,
    "latitude": 46.7948158,
    "longitude": 11.9410363
  },
  {
    "restaurantId": 141,
    "osmId": "420782990",
    "name": "Zum Hirschen",
    "cuisine": "",
    "phone": "",
    "website": "",
    "municipality": "",
    "address": "",
    "postcode": "",
    "nearResort": "Kronplatz - Plan de Corones",
    "distanceToResort_km": 2.9,
    "latitude": 46.7960385,
    "longitude": 11.9239464
  },
  {
    "restaurantId": 142,
    "osmId": "424414589",
    "name": "Feltuner Hütte - Malga Feltuner",
    "cuisine": "",
    "phone": "",
    "website": "",
    "municipality": "",
    "address": "",
    "postcode": "",
    "nearResort": "Plankenhorn",
    "distanceToResort_km": 9.8,
    "latitude": 46.6048404,
    "longitude": 11.4567065
  },
  {
    "restaurantId": 143,
    "osmId": "427707383",
    "name": "Finailhof",
    "cuisine": "",
    "phone": "",
    "website": "",
    "municipality": "",
    "address": "",
    "postcode": "",
    "nearResort": "Val Senales-Schnalstal",
    "distanceToResort_km": 4.5,
    "latitude": 46.7414455,
    "longitude": 10.8250827
  },
  {
    "restaurantId": 144,
    "osmId": "428639276",
    "name": "Niky's",
    "cuisine": "",
    "phone": "+39 0461 390828",
    "website": "https://www.nikys.it/",
    "municipality": "Trento",
    "address": "Via Enrico Fermi 7",
    "postcode": "38123",
    "nearResort": "3-Tre Vaneze",
    "distanceToResort_km": 4.4,
    "latitude": 46.0475076,
    "longitude": 11.1261306
  },
  {
    "restaurantId": 145,
    "osmId": "428644278",
    "name": "Loto 1997",
    "cuisine": "italian",
    "phone": "+39 0461 1863052",
    "website": "https://www.lototrento.it/",
    "municipality": "Trento",
    "address": "Via Gocciadoro 62",
    "postcode": "31822",
    "nearResort": "3-Tre Vaneze",
    "distanceToResort_km": 4.8,
    "latitude": 46.0559897,
    "longitude": 11.1314758
  },
  {
    "restaurantId": 146,
    "osmId": "428817942",
    "name": "Speckstube",
    "cuisine": "",
    "phone": "",
    "website": "",
    "municipality": "",
    "address": "",
    "postcode": "",
    "nearResort": "Le Stock",
    "distanceToResort_km": 3.2,
    "latitude": 45.9742277,
    "longitude": 11.2446893
  },
  {
    "restaurantId": 147,
    "osmId": "430531035",
    "name": "Blue Sax",
    "cuisine": "pizza",
    "phone": "+39 0461 910076",
    "website": "",
    "municipality": "Trento",
    "address": "Viale Verona 73",
    "postcode": "31822",
    "nearResort": "3-Tre Vaneze",
    "distanceToResort_km": 4.6,
    "latitude": 46.0563197,
    "longitude": 11.1287617
  },
  {
    "restaurantId": 148,
    "osmId": "430673959",
    "name": "Sapori d'Asia",
    "cuisine": "chinese",
    "phone": "",
    "website": "",
    "municipality": "Trento",
    "address": "Via della Prepositura 15",
    "postcode": "31822",
    "nearResort": "3-Tre Vaneze",
    "distanceToResort_km": 4.4,
    "latitude": 46.0690767,
    "longitude": 11.118671
  },
  {
    "restaurantId": 149,
    "osmId": "431475183",
    "name": "La Terrazza",
    "cuisine": "indian;italian;pizza",
    "phone": "+39 0461 390060",
    "website": "",
    "municipality": "Trento",
    "address": "Piazzale Europa 16",
    "postcode": "38123",
    "nearResort": "Topolino",
    "distanceToResort_km": 4.9,
    "latitude": 46.0406051,
    "longitude": 11.1329032
  },
  {
    "restaurantId": 150,
    "osmId": "431648975",
    "name": "Sapori Mediterranei",
    "cuisine": "fish;pizza;barbecue",
    "phone": "+39 0461 984360",
    "website": "https://saporimediterraneitn.it",
    "municipality": "Trento",
    "address": "Via Roberto da Sanseverino 39/4",
    "postcode": "31822",
    "nearResort": "3-Tre Vaneze",
    "distanceToResort_km": 3.9,
    "latitude": 46.064995,
    "longitude": 11.1141049
  },
  {
    "restaurantId": 151,
    "osmId": "431658690",
    "name": "Pizzeria da Albert",
    "cuisine": "pizza",
    "phone": "+39 0461 231712",
    "website": "https://www.albertpizza.it/",
    "municipality": "Trento",
    "address": "Via Giuseppe Verdi 15b",
    "postcode": "31822",
    "nearResort": "3-Tre Vaneze",
    "distanceToResort_km": 4.2,
    "latitude": 46.0665817,
    "longitude": 11.1171679
  },
  {
    "restaurantId": 152,
    "osmId": "431658693",
    "name": "Burger Fucktory",
    "cuisine": "pizza",
    "phone": "",
    "website": "https://www.burgerfucktory.com/",
    "municipality": "Trento",
    "address": "Via Bernardino Bomporto 2",
    "postcode": "31822",
    "nearResort": "3-Tre Vaneze",
    "distanceToResort_km": 4.1,
    "latitude": 46.0651062,
    "longitude": 11.1174849
  },
  {
    "restaurantId": 153,
    "osmId": "431658709",
    "name": "Pizzeria Tetley's",
    "cuisine": "pizza",
    "phone": "+39 0461 233477",
    "website": "https://www.tetleyspub.it/",
    "municipality": "Trento",
    "address": "Via degli Orti 1",
    "postcode": "31822",
    "nearResort": "3-Tre Vaneze",
    "distanceToResort_km": 4.4,
    "latitude": 46.0657418,
    "longitude": 11.121244
  },
  {
    "restaurantId": 154,
    "osmId": "431658713",
    "name": "Orso Grigio",
    "cuisine": "italian;regional",
    "phone": "+39 0461 984400",
    "website": "http://www.orsogrigiotrento.com/",
    "municipality": "Trento",
    "address": "Via degli Orti 19",
    "postcode": "31822",
    "nearResort": "3-Tre Vaneze",
    "distanceToResort_km": 4.5,
    "latitude": 46.0655854,
    "longitude": 11.1222669
  },
  {
    "restaurantId": 155,
    "osmId": "432473109",
    "name": "Ristorante Pizzeria Doc",
    "cuisine": "pizza;regional;breakfast;coffee_shop;bavarian;italian;italian_pizza;local;german;friture;seafood;ice_cream;pasta;chicken;sausage;cake;tea",
    "phone": "+39 0461 262022",
    "website": "http://www.doctrento.it",
    "municipality": "",
    "address": "Via Milano 148",
    "postcode": "31822",
    "nearResort": "3-Tre Vaneze",
    "distanceToResort_km": 5.0,
    "latitude": 46.0635732,
    "longitude": 11.1310495
  },
  {
    "restaurantId": 156,
    "osmId": "432987066",
    "name": "Pizzeria da Mimmo",
    "cuisine": "pizza",
    "phone": "",
    "website": "",
    "municipality": "",
    "address": "",
    "postcode": "",
    "nearResort": "Topolino",
    "distanceToResort_km": 2.8,
    "latitude": 46.0377468,
    "longitude": 11.1053814
  },
  {
    "restaurantId": 157,
    "osmId": "439594940",
    "name": "Plosehütte - Rifugio Plose",
    "cuisine": "regional",
    "phone": "+39 0472 521333",
    "website": "https://www.plosehuette.com/",
    "municipality": "",
    "address": "",
    "postcode": "",
    "nearResort": "Brixen Plose - Plose di Bressanone",
    "distanceToResort_km": 1.6,
    "latitude": 46.6949927,
    "longitude": 11.7321657
  },
  {
    "restaurantId": 158,
    "osmId": "439723633",
    "name": "Pizzeria Tre novembre",
    "cuisine": "italian_pizza",
    "phone": "",
    "website": "",
    "municipality": "Altopiano della Vigolana",
    "address": "Via Don Carlo Rossi 13",
    "postcode": "38049",
    "nearResort": "Le Stock",
    "distanceToResort_km": 3.6,
    "latitude": 45.9693135,
    "longitude": 11.2326193
  },
  {
    "restaurantId": 159,
    "osmId": "439750542",
    "name": "Da La Vedla",
    "cuisine": "pizza",
    "phone": "+393775945557",
    "website": "https://www.lavedla.it/",
    "municipality": "San Cassiano",
    "address": "Strada Micurá de Rü 24",
    "postcode": "39036",
    "nearResort": "Alta Badia Shop & Rental",
    "distanceToResort_km": 2.6,
    "latitude": 46.5711071,
    "longitude": 11.9318062
  },
  {
    "restaurantId": 160,
    "osmId": "439912351",
    "name": "Assaje",
    "cuisine": "pizza;italian",
    "phone": "",
    "website": "https://www.assaje.it/locations/trento/",
    "municipality": "Trento",
    "address": "Largo Giosuè Carducci 25",
    "postcode": "31822",
    "nearResort": "3-Tre Vaneze",
    "distanceToResort_km": 4.8,
    "latitude": 46.0684346,
    "longitude": 11.1246215
  },
  {
    "restaurantId": 161,
    "osmId": "440503597",
    "name": "Happy Ranch",
    "cuisine": "",
    "phone": "+39 0461 683518",
    "website": "http://www.happy-ranch.com",
    "municipality": "Cembra",
    "address": "Località Lago Santo",
    "postcode": "38034",
    "nearResort": "Pradis_ci",
    "distanceToResort_km": 8.2,
    "latitude": 46.1976615,
    "longitude": 11.2032566
  },
  {
    "restaurantId": 162,
    "osmId": "440655859",
    "name": "Skihütte",
    "cuisine": "regional",
    "phone": "",
    "website": "",
    "municipality": "",
    "address": "",
    "postcode": "",
    "nearResort": "Brixen Plose - Plose di Bressanone",
    "distanceToResort_km": 2.1,
    "latitude": 46.6774376,
    "longitude": 11.7375022
  },
  {
    "restaurantId": 163,
    "osmId": "441414833",
    "name": "Ristorante Bar Pizzeria J&J",
    "cuisine": "indian;pizza",
    "phone": "",
    "website": "",
    "municipality": "",
    "address": "",
    "postcode": "",
    "nearResort": "3-Tre Vaneze",
    "distanceToResort_km": 5.8,
    "latitude": 46.0475169,
    "longitude": 11.1451508
  },
  {
    "restaurantId": 164,
    "osmId": "441880019",
    "name": "La Terrazza",
    "cuisine": "",
    "phone": "",
    "website": "http://www.allaterrazza.com",
    "municipality": "",
    "address": "Via Benaco 24",
    "postcode": "",
    "nearResort": "Campeggio",
    "distanceToResort_km": 9.9,
    "latitude": 45.8690229,
    "longitude": 10.874958
  },
  {
    "restaurantId": 165,
    "osmId": "442218340",
    "name": "Trattoria \"Al Parol\"",
    "cuisine": "italian",
    "phone": "",
    "website": "",
    "municipality": "Trento",
    "address": "Via Mesiano 40",
    "postcode": "38123",
    "nearResort": "3-Tre Vaneze",
    "distanceToResort_km": 5.8,
    "latitude": 46.0668061,
    "longitude": 11.1405959
  },
  {
    "restaurantId": 166,
    "osmId": "442928069",
    "name": "La Mela",
    "cuisine": "",
    "phone": "",
    "website": "",
    "municipality": "",
    "address": "",
    "postcode": "",
    "nearResort": "Campeggio",
    "distanceToResort_km": 7.8,
    "latitude": 45.8545873,
    "longitude": 10.9463595
  },
  {
    "restaurantId": 167,
    "osmId": "443435231",
    "name": "Kaffee Konrad",
    "cuisine": "",
    "phone": "+39 0473 448646",
    "website": "",
    "municipality": "",
    "address": "",
    "postcode": "",
    "nearResort": "Falzeben 2",
    "distanceToResort_km": 10.1,
    "latitude": 46.6897789,
    "longitude": 11.120846
  },
  {
    "restaurantId": 168,
    "osmId": "445562136",
    "name": "Pizzeria Okay",
    "cuisine": "",
    "phone": "",
    "website": "",
    "municipality": "",
    "address": "",
    "postcode": "",
    "nearResort": "Campeggio",
    "distanceToResort_km": 13.0,
    "latitude": 45.8748472,
    "longitude": 11.033247
  },
  {
    "restaurantId": 169,
    "osmId": "446285924",
    "name": "Großberghütte",
    "cuisine": "regional",
    "phone": "+39 0472 520 277",
    "website": "https://www.grossberghuette.com/",
    "municipality": "Mühlbach - Rio di Pusteria",
    "address": "Grossbergstr. 11",
    "postcode": "39037",
    "nearResort": "Gitschberg Jochtal",
    "distanceToResort_km": 1.0,
    "latitude": 46.8411625,
    "longitude": 11.6505952
  },
  {
    "restaurantId": 170,
    "osmId": "449096185",
    "name": "Cafe Restaurant Seegarten",
    "cuisine": "",
    "phone": "",
    "website": "https://www.seegarten.it/",
    "municipality": "",
    "address": "",
    "postcode": "",
    "nearResort": "Petersberg - Monte San Pietro",
    "distanceToResort_km": 10.0,
    "latitude": 46.3839586,
    "longitude": 11.2585115
  },
  {
    "restaurantId": 171,
    "osmId": "455193451",
    "name": "Gasthof Schlossberg",
    "cuisine": "",
    "phone": "",
    "website": "https://pension-schlossberg.it/",
    "municipality": "",
    "address": "",
    "postcode": "",
    "nearResort": "Saxner II",
    "distanceToResort_km": 3.5,
    "latitude": 46.8197861,
    "longitude": 11.2582061
  },
  {
    "restaurantId": 172,
    "osmId": "456830729",
    "name": "Osteria storica Morelli",
    "cuisine": "",
    "phone": "",
    "website": "",
    "municipality": "",
    "address": "",
    "postcode": "",
    "nearResort": "Pradis_ci",
    "distanceToResort_km": 8.6,
    "latitude": 46.0780116,
    "longitude": 11.2780202
  },
  {
    "restaurantId": 173,
    "osmId": "456867283",
    "name": "Bergrestaurant Jochtal",
    "cuisine": "regional",
    "phone": "",
    "website": "",
    "municipality": "",
    "address": "",
    "postcode": "",
    "nearResort": "Restaurant",
    "distanceToResort_km": 0.1,
    "latitude": 46.8435955,
    "longitude": 11.6010012
  },
  {
    "restaurantId": 174,
    "osmId": "457521149",
    "name": "La Svolta",
    "cuisine": "italian",
    "phone": "",
    "website": "",
    "municipality": "",
    "address": "",
    "postcode": "",
    "nearResort": "Brentonico",
    "distanceToResort_km": 12.8,
    "latitude": 45.7949703,
    "longitude": 11.0960875
  },
  {
    "restaurantId": 175,
    "osmId": "457551203",
    "name": "Pizzeria Bavaria",
    "cuisine": "italian",
    "phone": "",
    "website": "",
    "municipality": "Riva del Garda",
    "address": "Viale Rovereto 100",
    "postcode": "38066",
    "nearResort": "Centro Sci di Fondo Chinaec",
    "distanceToResort_km": 10.6,
    "latitude": 45.8803073,
    "longitude": 10.8556849
  },
  {
    "restaurantId": 176,
    "osmId": "457652887",
    "name": "Ebner Rast",
    "cuisine": "",
    "phone": "",
    "website": "",
    "municipality": "",
    "address": "",
    "postcode": "",
    "nearResort": "Jochgrimm",
    "distanceToResort_km": 8.2,
    "latitude": 46.2870549,
    "longitude": 11.381995
  },
  {
    "restaurantId": 177,
    "osmId": "459656419",
    "name": "Taverna La Botte",
    "cuisine": "",
    "phone": "+39 0461 586948",
    "website": "http://www.tavernalabotte.it/",
    "municipality": "Molveno",
    "address": "Via Cima Tosa 4",
    "postcode": "38018",
    "nearResort": "Paganella 2",
    "distanceToResort_km": 2.9,
    "latitude": 46.1431234,
    "longitude": 10.9660326
  },
  {
    "restaurantId": 178,
    "osmId": "459656425",
    "name": "Al Caminetto",
    "cuisine": "",
    "phone": "",
    "website": "",
    "municipality": "",
    "address": "",
    "postcode": "",
    "nearResort": "Paganella 2",
    "distanceToResort_km": 3.2,
    "latitude": 46.1406246,
    "longitude": 10.9619447
  },
  {
    "restaurantId": 179,
    "osmId": "462127221",
    "name": "Baite di Prà",
    "cuisine": "agritur",
    "phone": "",
    "website": "",
    "municipality": "",
    "address": "",
    "postcode": "",
    "nearResort": "Pista 1 (SX)",
    "distanceToResort_km": 8.3,
    "latitude": 46.0992927,
    "longitude": 10.6953547
  },
  {
    "restaurantId": 180,
    "osmId": "462251316",
    "name": "Sterzingerhof",
    "cuisine": "regional;pizza;burger",
    "phone": "+39 0472 765128",
    "website": "",
    "municipality": "Sterzing - Vipiteno",
    "address": "Geizkoflerstraße - Via Geizkofler 15",
    "postcode": "39049",
    "nearResort": "Rosskopf",
    "distanceToResort_km": 2.2,
    "latitude": 46.8982721,
    "longitude": 11.4335507
  },
  {
    "restaurantId": 181,
    "osmId": "463189395",
    "name": "Ai Vicoli",
    "cuisine": "",
    "phone": "+39 0461 260673",
    "website": "http://www.aivicoli.it/",
    "municipality": "Trento",
    "address": "Piazza Santa Teresa Verzeri 1",
    "postcode": "31822",
    "nearResort": "3-Tre Vaneze",
    "distanceToResort_km": 4.4,
    "latitude": 46.0675785,
    "longitude": 11.1202669
  },
  {
    "restaurantId": 182,
    "osmId": "463547596",
    "name": "Malga Canali",
    "cuisine": "regional",
    "phone": "",
    "website": "",
    "municipality": "",
    "address": "",
    "postcode": "",
    "nearResort": "San Martino di Castrozza",
    "distanceToResort_km": 8.1,
    "latitude": 46.2232952,
    "longitude": 11.8884108
  },
  {
    "restaurantId": 183,
    "osmId": "468069349",
    "name": "Ristorante Pizzeria Nuova Castelli",
    "cuisine": "pizza;italian",
    "phone": "+39 0461 827079",
    "website": "",
    "municipality": "",
    "address": "",
    "postcode": "",
    "nearResort": "3-Tre Vaneze",
    "distanceToResort_km": 5.2,
    "latitude": 46.0760979,
    "longitude": 11.1240728
  },
  {
    "restaurantId": 184,
    "osmId": "469091810",
    "name": "Garnischgerhof",
    "cuisine": "",
    "phone": "",
    "website": "",
    "municipality": "",
    "address": "",
    "postcode": "",
    "nearResort": "Deutschnofen - Nova Ponente",
    "distanceToResort_km": 2.2,
    "latitude": 46.3916713,
    "longitude": 11.4653356
  },
  {
    "restaurantId": 185,
    "osmId": "469106203",
    "name": "Völlaner Badl",
    "cuisine": "regional",
    "phone": "",
    "website": "",
    "municipality": "",
    "address": "",
    "postcode": "",
    "nearResort": "Falzeben 2",
    "distanceToResort_km": 14.0,
    "latitude": 46.5776295,
    "longitude": 11.1380402
  },
  {
    "restaurantId": 186,
    "osmId": "470256244",
    "name": "Steinegger",
    "cuisine": "italian;regional",
    "phone": "+39 0471 662248",
    "website": "https://www.steinegger.it",
    "municipality": "Eppan an der Weinstraße - Appiano sulla Strada del Vino",
    "address": "Matschatscher Weg - Strada Masaccio 9",
    "postcode": "39057",
    "nearResort": "Petersberg - Monte San Pietro",
    "distanceToResort_km": 13.3,
    "latitude": 46.4552667,
    "longitude": 11.2399826
  },
  {
    "restaurantId": 187,
    "osmId": "470259436",
    "name": "Überetscher Keller Restaurant Pizzeria",
    "cuisine": "pizza",
    "phone": "",
    "website": "",
    "municipality": "",
    "address": "",
    "postcode": "",
    "nearResort": "Petersberg - Monte San Pietro",
    "distanceToResort_km": 11.7,
    "latitude": 46.4547772,
    "longitude": 11.2636727
  },
  {
    "restaurantId": 188,
    "osmId": "470613019",
    "name": "Muye",
    "cuisine": "",
    "phone": "",
    "website": "",
    "municipality": "",
    "address": "",
    "postcode": "",
    "nearResort": "Brixen Plose - Plose di Bressanone",
    "distanceToResort_km": 6.0,
    "latitude": 46.7198572,
    "longitude": 11.6505776
  },
  {
    "restaurantId": 189,
    "osmId": "471114151",
    "name": "Aquila Nera",
    "cuisine": "",
    "phone": "+39 0461 549090",
    "website": "",
    "municipality": "",
    "address": "",
    "postcode": "",
    "nearResort": "Pradis_ci",
    "distanceToResort_km": 9.0,
    "latitude": 46.0736674,
    "longitude": 11.3016006
  },
  {
    "restaurantId": 190,
    "osmId": "471114173",
    "name": "Albergo ristorante Kamauz",
    "cuisine": "",
    "phone": "",
    "website": "",
    "municipality": "",
    "address": "",
    "postcode": "",
    "nearResort": "Pradis_ci",
    "distanceToResort_km": 8.9,
    "latitude": 46.0747699,
    "longitude": 11.3027031
  },
  {
    "restaurantId": 191,
    "osmId": "471617940",
    "name": "Rotbachalm",
    "cuisine": "regional",
    "phone": "",
    "website": "",
    "municipality": "Ahrntal - Valle Aurina",
    "address": "Brunnberg 22",
    "postcode": "39030",
    "nearResort": "Klausberg Skiarena",
    "distanceToResort_km": 4.3,
    "latitude": 46.9724096,
    "longitude": 11.9135392
  },
  {
    "restaurantId": 192,
    "osmId": "471618005",
    "name": "Stallila",
    "cuisine": "regional",
    "phone": "",
    "website": "",
    "municipality": "Ahrntal - Valle Aurina",
    "address": "Rohrberg 37",
    "postcode": "39030",
    "nearResort": "Klausberg Skiarena",
    "distanceToResort_km": 4.4,
    "latitude": 46.9771096,
    "longitude": 11.9149207
  },
  {
    "restaurantId": 193,
    "osmId": "471639285",
    "name": "Grillage",
    "cuisine": "mexican;traditional;meat",
    "phone": "+39 0472 830604",
    "website": "https://www.grillage.it/",
    "municipality": "",
    "address": "",
    "postcode": "",
    "nearResort": "Brixen Plose - Plose di Bressanone",
    "distanceToResort_km": 5.5,
    "latitude": 46.7165455,
    "longitude": 11.6554488
  },
  {
    "restaurantId": 194,
    "osmId": "471843072",
    "name": "VIP Express",
    "cuisine": "pizza;regional",
    "phone": "",
    "website": "",
    "municipality": "",
    "address": "",
    "postcode": "",
    "nearResort": "Brixen Plose - Plose di Bressanone",
    "distanceToResort_km": 6.0,
    "latitude": 46.7212321,
    "longitude": 11.6525257
  },
  {
    "restaurantId": 195,
    "osmId": "472201994",
    "name": "Waldneralm",
    "cuisine": "",
    "phone": "",
    "website": "",
    "municipality": "",
    "address": "",
    "postcode": "",
    "nearResort": "Rein in Taufers - Riva di Tures",
    "distanceToResort_km": 10.9,
    "latitude": 47.0465489,
    "longitude": 12.0929994
  },
  {
    "restaurantId": 196,
    "osmId": "472597025",
    "name": "Meggima",
    "cuisine": "italian;pizza;regional",
    "phone": "",
    "website": "https://www.meggima.eu/",
    "municipality": "",
    "address": "",
    "postcode": "",
    "nearResort": "Speikboden",
    "distanceToResort_km": 5.3,
    "latitude": 46.8907455,
    "longitude": 11.8700125
  },
  {
    "restaurantId": 197,
    "osmId": "474425716",
    "name": "Pfarrgasthof",
    "cuisine": "regional",
    "phone": "",
    "website": "",
    "municipality": "",
    "address": "",
    "postcode": "",
    "nearResort": "Rosskopf",
    "distanceToResort_km": 7.9,
    "latitude": 46.964868,
    "longitude": 11.3466635
  },
  {
    "restaurantId": 198,
    "osmId": "476270487",
    "name": "Anratterhütte",
    "cuisine": "regional",
    "phone": "+39 0472 849574",
    "website": "https://www.anratterhof.info/",
    "municipality": "",
    "address": "",
    "postcode": "",
    "nearResort": "Hinterberg",
    "distanceToResort_km": 0.7,
    "latitude": 46.8369354,
    "longitude": 11.6074335
  },
  {
    "restaurantId": 199,
    "osmId": "476867344",
    "name": "Schutzhaus Latzfonser Kreuz - Rifugio Santa Croce di Lazfons",
    "cuisine": "regional",
    "phone": "",
    "website": "https://www.latzfonserkreuz.com/",
    "municipality": "",
    "address": "",
    "postcode": "",
    "nearResort": "Pendio ripido",
    "distanceToResort_km": 3.5,
    "latitude": 46.7019065,
    "longitude": 11.4998013
  },
  {
    "restaurantId": 200,
    "osmId": "478522448",
    "name": "Pizzeria Comparsa - Al Baracca",
    "cuisine": "pizza",
    "phone": "",
    "website": "",
    "municipality": "",
    "address": "",
    "postcode": "",
    "nearResort": "Pradis_ci",
    "distanceToResort_km": 8.0,
    "latitude": 46.0943119,
    "longitude": 11.2334908
  },
  {
    "restaurantId": 201,
    "osmId": "478534965",
    "name": "Ristorante pizzeria La Corte",
    "cuisine": "",
    "phone": "",
    "website": "",
    "municipality": "",
    "address": "",
    "postcode": "",
    "nearResort": "Pradis_ci",
    "distanceToResort_km": 10.7,
    "latitude": 46.0788379,
    "longitude": 11.2037412
  },
  {
    "restaurantId": 202,
    "osmId": "478636891",
    "name": "Kuppelwies",
    "cuisine": "",
    "phone": "",
    "website": "",
    "municipality": "",
    "address": "",
    "postcode": "",
    "nearResort": "Schwemmalm",
    "distanceToResort_km": 2.3,
    "latitude": 46.5301638,
    "longitude": 10.9581921
  },
  {
    "restaurantId": 203,
    "osmId": "478679524",
    "name": "Break Point SS47 - Hotel e ristorante",
    "cuisine": "",
    "phone": "",
    "website": "",
    "municipality": "",
    "address": "",
    "postcode": "",
    "nearResort": "Pradis_ci",
    "distanceToResort_km": 10.8,
    "latitude": 46.0764157,
    "longitude": 11.2075404
  },
  {
    "restaurantId": 204,
    "osmId": "478771265",
    "name": "Pretzhof",
    "cuisine": "regional",
    "phone": "+39 0472 764455",
    "website": "https://www.pretzhof.com/",
    "municipality": "Pfitsch - Val di Vizze",
    "address": "Tulfer 259",
    "postcode": "39049",
    "nearResort": "Rosskopf",
    "distanceToResort_km": 7.6,
    "latitude": 46.9036797,
    "longitude": 11.507884
  },
  {
    "restaurantId": 205,
    "osmId": "479311071",
    "name": "Häusler Sam",
    "cuisine": "",
    "phone": "",
    "website": "",
    "municipality": "",
    "address": "",
    "postcode": "",
    "nearResort": "Obereggen",
    "distanceToResort_km": 2.2,
    "latitude": 46.4030335,
    "longitude": 11.5253955
  },
  {
    "restaurantId": 206,
    "osmId": "482018936",
    "name": "La scardola",
    "cuisine": "",
    "phone": "",
    "website": "",
    "municipality": "",
    "address": "",
    "postcode": "",
    "nearResort": "Pradis_ci",
    "distanceToResort_km": 4.5,
    "latitude": 46.1291452,
    "longitude": 11.2447454
  },
  {
    "restaurantId": 207,
    "osmId": "482531366",
    "name": "Osteria Al Moro",
    "cuisine": "",
    "phone": "",
    "website": "",
    "municipality": "",
    "address": "",
    "postcode": "",
    "nearResort": "Pradis_ci",
    "distanceToResort_km": 11.0,
    "latitude": 46.0613829,
    "longitude": 11.2428217
  },
  {
    "restaurantId": 208,
    "osmId": "482716381",
    "name": "Alla Rotonda",
    "cuisine": "",
    "phone": "",
    "website": "",
    "municipality": "",
    "address": "",
    "postcode": "",
    "nearResort": "Pradis_ci",
    "distanceToResort_km": 11.4,
    "latitude": 46.0587504,
    "longitude": 11.2373901
  },
  {
    "restaurantId": 209,
    "osmId": "482740210",
    "name": "Friedheim",
    "cuisine": "pizza",
    "phone": "+390471668048",
    "website": "",
    "municipality": "",
    "address": "Möltnerstraße 44",
    "postcode": "",
    "nearResort": "Falzeben 2",
    "distanceToResort_km": 10.0,
    "latitude": 46.5866717,
    "longitude": 11.2532878
  },
  {
    "restaurantId": 210,
    "osmId": "482849666",
    "name": "Cristallo",
    "cuisine": "",
    "phone": "",
    "website": "",
    "municipality": "",
    "address": "",
    "postcode": "",
    "nearResort": "Pradis_ci",
    "distanceToResort_km": 11.0,
    "latitude": 46.0618088,
    "longitude": 11.2417648
  },
  {
    "restaurantId": 211,
    "osmId": "483034364",
    "name": "Bistrot Alte Post",
    "cuisine": "regional",
    "phone": "+39 0473 616884",
    "website": "",
    "municipality": "",
    "address": "Hauptstraße - Via Principale 98",
    "postcode": "",
    "nearResort": "7",
    "distanceToResort_km": 8.5,
    "latitude": 46.6170093,
    "longitude": 10.5906511
  },
  {
    "restaurantId": 212,
    "osmId": "484919953",
    "name": "Agritur Malga Stramaiolo",
    "cuisine": "regional",
    "phone": "",
    "website": "",
    "municipality": "",
    "address": "",
    "postcode": "",
    "nearResort": "Pradis_ci",
    "distanceToResort_km": 3.0,
    "latitude": 46.1589433,
    "longitude": 11.3282197
  },
  {
    "restaurantId": 213,
    "osmId": "489680926",
    "name": "Pizzeria Baitella",
    "cuisine": "pizza",
    "phone": "",
    "website": "",
    "municipality": "",
    "address": "",
    "postcode": "",
    "nearResort": "Le Cogole",
    "distanceToResort_km": 10.7,
    "latitude": 46.0503024,
    "longitude": 11.2568822
  },
  {
    "restaurantId": 214,
    "osmId": "489869145",
    "name": "Casa Beust",
    "cuisine": "pizza",
    "phone": "",
    "website": "",
    "municipality": "Torbole sul Garda",
    "address": "Via Benaco 15",
    "postcode": "38069",
    "nearResort": "Campeggio",
    "distanceToResort_km": 9.9,
    "latitude": 45.8687443,
    "longitude": 10.8755678
  },
  {
    "restaurantId": 215,
    "osmId": "492588317",
    "name": "Hotel Rungghof",
    "cuisine": "",
    "phone": "",
    "website": "",
    "municipality": "",
    "address": "",
    "postcode": "",
    "nearResort": "Seiser Alm - Mont de Sëuc - Alpe di Siusi",
    "distanceToResort_km": 6.1,
    "latitude": 46.5487212,
    "longitude": 11.5485111
  },
  {
    "restaurantId": 216,
    "osmId": "495259963",
    "name": "Gasthof Prennanger",
    "cuisine": "",
    "phone": "",
    "website": "",
    "municipality": "",
    "address": "",
    "postcode": "",
    "nearResort": "Oswald 1 - Osvaldo 1",
    "distanceToResort_km": 6.2,
    "latitude": 46.7338661,
    "longitude": 11.2275193
  },
  {
    "restaurantId": 217,
    "osmId": "495277792",
    "name": "Kaffee Sterneck — Restaurant Zum Gustl",
    "cuisine": "regional",
    "phone": "",
    "website": "",
    "municipality": "",
    "address": "",
    "postcode": "",
    "nearResort": "Oswald 1 - Osvaldo 1",
    "distanceToResort_km": 6.4,
    "latitude": 46.7363834,
    "longitude": 11.2281777
  },
  {
    "restaurantId": 218,
    "osmId": "495278242",
    "name": "Gasthof Alpenblick",
    "cuisine": "",
    "phone": "",
    "website": "",
    "municipality": "",
    "address": "",
    "postcode": "",
    "nearResort": "Oswald 1 - Osvaldo 1",
    "distanceToResort_km": 6.5,
    "latitude": 46.7362119,
    "longitude": 11.2269208
  },
  {
    "restaurantId": 219,
    "osmId": "495296082",
    "name": "Gasthof Hiaslbauer",
    "cuisine": "regional",
    "phone": "+39 0473 949452",
    "website": "",
    "municipality": "",
    "address": "",
    "postcode": "",
    "nearResort": "Oswald 1 - Osvaldo 1",
    "distanceToResort_km": 3.8,
    "latitude": 46.7186063,
    "longitude": 11.2509486
  },
  {
    "restaurantId": 220,
    "osmId": "495297077",
    "name": "Gasthaus Haashof",
    "cuisine": "regional",
    "phone": "+39 0473 949509",
    "website": "http://www.haashof.it/",
    "municipality": "",
    "address": "",
    "postcode": "",
    "nearResort": "Oswald 1 - Osvaldo 1",
    "distanceToResort_km": 3.8,
    "latitude": 46.718245,
    "longitude": 11.2509768
  },
  {
    "restaurantId": 221,
    "osmId": "495979666",
    "name": "Gasthaus St. Valentin",
    "cuisine": "",
    "phone": "",
    "website": "",
    "municipality": "",
    "address": "",
    "postcode": "",
    "nearResort": "Loipe Panider Sattel - Pista Passo Pinei",
    "distanceToResort_km": 9.3,
    "latitude": 46.6551634,
    "longitude": 11.5710851
  },
  {
    "restaurantId": 222,
    "osmId": "497059302",
    "name": "Agritur Tinglerhof",
    "cuisine": "",
    "phone": "",
    "website": "",
    "municipality": "",
    "address": "",
    "postcode": "",
    "nearResort": "Pradis_ci",
    "distanceToResort_km": 9.9,
    "latitude": 46.0676326,
    "longitude": 11.31628
  },
  {
    "restaurantId": 223,
    "osmId": "497065140",
    "name": "Al Sole",
    "cuisine": "",
    "phone": "+39 0461 718192",
    "website": "http://ristopizzasole.com/",
    "municipality": "Caldonazzo",
    "address": "Località Brenta 2",
    "postcode": "38052",
    "nearResort": "Le Cogole",
    "distanceToResort_km": 5.6,
    "latitude": 46.0056784,
    "longitude": 11.2726206
  },
  {
    "restaurantId": 224,
    "osmId": "497092919",
    "name": "Ristorante Valcanover",
    "cuisine": "regional",
    "phone": "+39 0461 548 037",
    "website": "http://www.albergovalcanover.it",
    "municipality": "Pergine Valsugana",
    "address": "Via di Mezzo Lago 3",
    "postcode": "38057",
    "nearResort": "Le Stock",
    "distanceToResort_km": 9.0,
    "latitude": 46.0270136,
    "longitude": 11.2296822
  },
  {
    "restaurantId": 225,
    "osmId": "497092958",
    "name": "Giropizza VIP",
    "cuisine": "pizza",
    "phone": "+39 0461 512282",
    "website": "",
    "municipality": "Pergine Valsugana",
    "address": "Località Valcanover 13",
    "postcode": "",
    "nearResort": "Le Cogole",
    "distanceToResort_km": 9.5,
    "latitude": 46.0319673,
    "longitude": 11.2297645
  },
  {
    "restaurantId": 226,
    "osmId": "497095123",
    "name": "La Darsena",
    "cuisine": "italian",
    "phone": "",
    "website": "",
    "municipality": "",
    "address": "",
    "postcode": "",
    "nearResort": "Le Cogole",
    "distanceToResort_km": 9.9,
    "latitude": 46.0383649,
    "longitude": 11.2370537
  },
  {
    "restaurantId": 227,
    "osmId": "498751319",
    "name": "Baita Van Spitz",
    "cuisine": "italian;regional",
    "phone": "+39 342 123 4051",
    "website": "",
    "municipality": "Frassilongo",
    "address": "Poun Van Spitz 1",
    "postcode": "38050",
    "nearResort": "Pradis_ci",
    "distanceToResort_km": 8.1,
    "latitude": 46.0839607,
    "longitude": 11.316434
  },
  {
    "restaurantId": 228,
    "osmId": "499994779",
    "name": "Bar Haidi Pizzeria Bistro",
    "cuisine": "pizza",
    "phone": "",
    "website": "",
    "municipality": "Bolzano - Bozen",
    "address": "Via Renon - Rittner Straße 33",
    "postcode": "39100",
    "nearResort": "Petersberg - Monte San Pietro",
    "distanceToResort_km": 11.9,
    "latitude": 46.4991165,
    "longitude": 11.3625622
  },
  {
    "restaurantId": 229,
    "osmId": "500004619",
    "name": "Vögele",
    "cuisine": "regional;italian",
    "phone": "+39 0471 973938",
    "website": "https://www.voegele.it/",
    "municipality": "Bolzano - Bozen",
    "address": "Via Johann Wolfgang Von Goethe - Johann-Wolfgang-Von-Goethe-Straße 3",
    "postcode": "39100",
    "nearResort": "Petersberg - Monte San Pietro",
    "distanceToResort_km": 12.1,
    "latitude": 46.4990306,
    "longitude": 11.3525008
  },
  {
    "restaurantId": 230,
    "osmId": "500004620",
    "name": "Forstbräu Central",
    "cuisine": "italian;regional",
    "phone": "+39 0471 977243",
    "website": "https://www.forsterbrau.it/",
    "municipality": "Bolzano - Bozen",
    "address": "Via Johann Wolfgang Von Goethe - Johann-Wolfgang-Von-Goethe-Straße 6",
    "postcode": "39100",
    "nearResort": "Petersberg - Monte San Pietro",
    "distanceToResort_km": 12.1,
    "latitude": 46.4990726,
    "longitude": 11.3523422
  },
  {
    "restaurantId": 231,
    "osmId": "500004621",
    "name": "Hopfen & Co.",
    "cuisine": "regional",
    "phone": "+39 0471 300788",
    "website": "https://www.boznerbier.it/",
    "municipality": "Bolzano - Bozen",
    "address": "Piazza delle Erbe - Obstplatz 17",
    "postcode": "39100",
    "nearResort": "Petersberg - Monte San Pietro",
    "distanceToResort_km": 12.1,
    "latitude": 46.4993259,
    "longitude": 11.3525722
  },
  {
    "restaurantId": 232,
    "osmId": "500004622",
    "name": "Batzenhäusl",
    "cuisine": "regional",
    "phone": "+39 0471 050950",
    "website": "https://www.batzen.it/",
    "municipality": "Bolzano - Bozen",
    "address": "Via Andreas Hofer - Andreas-Hofer-Straße 30",
    "postcode": "39100",
    "nearResort": "Petersberg - Monte San Pietro",
    "distanceToResort_km": 12.3,
    "latitude": 46.5013603,
    "longitude": 11.3574364
  },
  {
    "restaurantId": 233,
    "osmId": "500522638",
    "name": "Auener Hof",
    "cuisine": "",
    "phone": "",
    "website": "",
    "municipality": "",
    "address": "",
    "postcode": "",
    "nearResort": "Mittager 1 - Catino 1",
    "distanceToResort_km": 4.1,
    "latitude": 46.6517894,
    "longitude": 11.3225031
  },
  {
    "restaurantId": 234,
    "osmId": "500578510",
    "name": "Gschnagenhardt Alm - Malga Casnago",
    "cuisine": "regional",
    "phone": "+39 0472 840158",
    "website": "https://www.gschnagenhardtalm.it",
    "municipality": "",
    "address": "",
    "postcode": "",
    "nearResort": "Centro di fondo Vallunga",
    "distanceToResort_km": 6.6,
    "latitude": 46.6193202,
    "longitude": 11.749604
  },
  {
    "restaurantId": 235,
    "osmId": "503587221",
    "name": "Bauer im Wald",
    "cuisine": "",
    "phone": "+39 0471 616330",
    "website": "http://bauerimwald.com",
    "municipality": "",
    "address": "",
    "postcode": "",
    "nearResort": "Deutschnofen - Nova Ponente",
    "distanceToResort_km": 5.2,
    "latitude": 46.4405828,
    "longitude": 11.4003031
  },
  {
    "restaurantId": 236,
    "osmId": "506680054",
    "name": "Castelletto sul Lago - Schlössel",
    "cuisine": "regional",
    "phone": "",
    "website": "",
    "municipality": "",
    "address": "",
    "postcode": "",
    "nearResort": "Schöneben - Belpiano",
    "distanceToResort_km": 3.8,
    "latitude": 46.8277806,
    "longitude": 10.5112818
  },
  {
    "restaurantId": 237,
    "osmId": "506781537",
    "name": "Restel de Fer",
    "cuisine": "regional",
    "phone": "+39 0464553481",
    "website": "https://www.resteldefer.com",
    "municipality": "Riva del Garda",
    "address": "Via Restel de Fer 10",
    "postcode": "38066",
    "nearResort": "Centro Sci di Fondo Chinaec",
    "distanceToResort_km": 10.6,
    "latitude": 45.8825265,
    "longitude": 10.8567684
  },
  {
    "restaurantId": 238,
    "osmId": "510963459",
    "name": "Trattoria Sant'Alessandro",
    "cuisine": "",
    "phone": "+39 0464 661476",
    "website": "www.trattoriasantalessandro.com",
    "municipality": "",
    "address": "Via Sant'Alessandro 19",
    "postcode": "38066",
    "nearResort": "Centro Sci di Fondo Chinaec",
    "distanceToResort_km": 10.6,
    "latitude": 45.8903019,
    "longitude": 10.8624376
  },
  {
    "restaurantId": 239,
    "osmId": "511197998",
    "name": "Ristorante Castello",
    "cuisine": "",
    "phone": "+39 0464 500638",
    "website": "https://www.ristorantecastellotenno.com/",
    "municipality": "Tenno",
    "address": "Via per San Lorenzo 29",
    "postcode": "38060",
    "nearResort": "Centro Sci di Fondo Chinaec",
    "distanceToResort_km": 7.5,
    "latitude": 45.9168932,
    "longitude": 10.832553
  },
  {
    "restaurantId": 240,
    "osmId": "511198005",
    "name": "Hotel ristorante Antica Croce",
    "cuisine": "",
    "phone": "+39 0464 500620",
    "website": "https://gardaslowemotion.it/it/",
    "municipality": "Tenno",
    "address": "Via dei Laghi 1",
    "postcode": "38060",
    "nearResort": "Centro Sci di Fondo Chinaec",
    "distanceToResort_km": 7.5,
    "latitude": 45.9174613,
    "longitude": 10.8328756
  },
  {
    "restaurantId": 241,
    "osmId": "514493965",
    "name": "Gasthaus Seespitz",
    "cuisine": "regional",
    "phone": "+39 0473 562955",
    "website": "https://www.vigilio.com/de/gasthaeuser/gasthof-seespitz.html",
    "municipality": "",
    "address": "",
    "postcode": "",
    "nearResort": "Falzeben 2",
    "distanceToResort_km": 12.2,
    "latitude": 46.6459586,
    "longitude": 11.0989943
  },
  {
    "restaurantId": 242,
    "osmId": "528747722",
    "name": "Gasthof Hasenegg",
    "cuisine": "regional",
    "phone": "",
    "website": "",
    "municipality": "",
    "address": "",
    "postcode": "",
    "nearResort": "Falzeben 2",
    "distanceToResort_km": 5.0,
    "latitude": 46.7097947,
    "longitude": 11.2090191
  },
  {
    "restaurantId": 243,
    "osmId": "528765366",
    "name": "Restaurant - Cafe Georgenhof",
    "cuisine": "regional",
    "phone": "+39 0473 945 689",
    "website": "",
    "municipality": "",
    "address": "",
    "postcode": "",
    "nearResort": "Falzeben 2",
    "distanceToResort_km": 4.2,
    "latitude": 46.6838314,
    "longitude": 11.1983051
  },
  {
    "restaurantId": 244,
    "osmId": "529590043",
    "name": "Bärenbadalm - Malga Bagno dell'Orso",
    "cuisine": "regional",
    "phone": "+393389918224",
    "website": "https://baerenbadalm.com",
    "municipality": "Lana",
    "address": "Vigiljoch 87",
    "postcode": "",
    "nearResort": "Falzeben 2",
    "distanceToResort_km": 13.6,
    "latitude": 46.6296642,
    "longitude": 11.0873019
  },
  {
    "restaurantId": 245,
    "osmId": "537513269",
    "name": "La Vecchia Segheria",
    "cuisine": "",
    "phone": "",
    "website": "",
    "municipality": "",
    "address": "",
    "postcode": "",
    "nearResort": "Pradis_ci",
    "distanceToResort_km": 4.0,
    "latitude": 46.1335973,
    "longitude": 11.2474976
  },
  {
    "restaurantId": 246,
    "osmId": "538308384",
    "name": "La Sinfonia",
    "cuisine": "italian",
    "phone": "",
    "website": "",
    "municipality": "",
    "address": "",
    "postcode": "",
    "nearResort": "Petersberg - Monte San Pietro",
    "distanceToResort_km": 11.0,
    "latitude": 46.4874586,
    "longitude": 11.3458727
  },
  {
    "restaurantId": 247,
    "osmId": "538835090",
    "name": "Trattoria Sarda \"Il Nuraghe\"",
    "cuisine": "regional",
    "phone": "",
    "website": "",
    "municipality": "",
    "address": "",
    "postcode": "",
    "nearResort": "Petersberg - Monte San Pietro",
    "distanceToResort_km": 10.5,
    "latitude": 46.4826063,
    "longitude": 11.3424494
  },
  {
    "restaurantId": 248,
    "osmId": "538835829",
    "name": "Ristorante \"Stella Alpina\"",
    "cuisine": "italian",
    "phone": "",
    "website": "",
    "municipality": "",
    "address": "",
    "postcode": "",
    "nearResort": "Petersberg - Monte San Pietro",
    "distanceToResort_km": 10.5,
    "latitude": 46.481854,
    "longitude": 11.3417647
  },
  {
    "restaurantId": 249,
    "osmId": "538835832",
    "name": "Pizza Live",
    "cuisine": "pizza",
    "phone": "",
    "website": "",
    "municipality": "",
    "address": "",
    "postcode": "",
    "nearResort": "Petersberg - Monte San Pietro",
    "distanceToResort_km": 10.5,
    "latitude": 46.4821951,
    "longitude": 11.3420563
  },
  {
    "restaurantId": 250,
    "osmId": "540371369",
    "name": "Jausenstation Moarhof",
    "cuisine": "",
    "phone": "",
    "website": "",
    "municipality": "",
    "address": "",
    "postcode": "",
    "nearResort": "",
    "distanceToResort_km": null,
    "latitude": 46.5124093,
    "longitude": 11.2099626
  },
  {
    "restaurantId": 251,
    "osmId": "540943826",
    "name": "Arbor",
    "cuisine": "",
    "phone": "",
    "website": "",
    "municipality": "",
    "address": "",
    "postcode": "",
    "nearResort": "Rosskopf",
    "distanceToResort_km": 2.2,
    "latitude": 46.8983126,
    "longitude": 11.4334193
  },
  {
    "restaurantId": 252,
    "osmId": "540989354",
    "name": "Ristorane Pizzeria Caregnato",
    "cuisine": "",
    "phone": "",
    "website": "",
    "municipality": "",
    "address": "",
    "postcode": "",
    "nearResort": "Pfelders Ski Resort",
    "distanceToResort_km": 14.4,
    "latitude": 46.6633964,
    "longitude": 11.0432322
  },
  {
    "restaurantId": 253,
    "osmId": "540994930",
    "name": "Ressmair",
    "cuisine": "",
    "phone": "+39 0473 236400",
    "website": "",
    "municipality": "Meran - Merano",
    "address": "Romstraße - Via Roma 166",
    "postcode": "39012",
    "nearResort": "Falzeben 2",
    "distanceToResort_km": 6.9,
    "latitude": 46.6620319,
    "longitude": 11.1639099
  },
  {
    "restaurantId": 254,
    "osmId": "546185076",
    "name": "Agriturismo Simoni",
    "cuisine": "regional",
    "phone": "+39 0461 684 381",
    "website": "",
    "municipality": "Palù",
    "address": "Piazza degli Alpini 13",
    "postcode": "38030",
    "nearResort": "Campo Scuola Rolly Marchi",
    "distanceToResort_km": 6.9,
    "latitude": 46.1582629,
    "longitude": 11.1405538
  },
  {
    "restaurantId": 255,
    "osmId": "551646739",
    "name": "Kaiserkron",
    "cuisine": "fine_dining",
    "phone": "",
    "website": "",
    "municipality": "",
    "address": "Piazza della Mostra - Musterplatz",
    "postcode": "",
    "nearResort": "Petersberg - Monte San Pietro",
    "distanceToResort_km": 12.0,
    "latitude": 46.4983267,
    "longitude": 11.3534441
  },
  {
    "restaurantId": 256,
    "osmId": "552719666",
    "name": "Gasthaus Fink",
    "cuisine": "",
    "phone": "+39 0471 975047",
    "website": "http://fink-restaurant.it",
    "municipality": "Bolzano - Bozen",
    "address": "Via della Mostra - Mustergasse 9",
    "postcode": "39100",
    "nearResort": "Petersberg - Monte San Pietro",
    "distanceToResort_km": 12.0,
    "latitude": 46.4984999,
    "longitude": 11.3529148
  },
  {
    "restaurantId": 257,
    "osmId": "556402530",
    "name": "Mendelhof",
    "cuisine": "",
    "phone": "+39 0471 633371",
    "website": "https://www.ristorantemendelhof.it/",
    "municipality": "Bolzano - Bozen",
    "address": "Via Castel Firmiano 22",
    "postcode": "39100",
    "nearResort": "Petersberg - Monte San Pietro",
    "distanceToResort_km": 12.3,
    "latitude": 46.4854945,
    "longitude": 11.2997648
  },
  {
    "restaurantId": 258,
    "osmId": "556615391",
    "name": "Nussbaumer",
    "cuisine": "italian;pizza",
    "phone": "",
    "website": "",
    "municipality": "",
    "address": "",
    "postcode": "",
    "nearResort": "Petersberg - Monte San Pietro",
    "distanceToResort_km": 12.2,
    "latitude": 46.5008164,
    "longitude": 11.3570139
  },
  {
    "restaurantId": 259,
    "osmId": "556616202",
    "name": "Weißes Rössl - Cavallino Bianco",
    "cuisine": "",
    "phone": "",
    "website": "",
    "municipality": "",
    "address": "Via dei Bottai - Bindergasse 6",
    "postcode": "",
    "nearResort": "Petersberg - Monte San Pietro",
    "distanceToResort_km": 12.2,
    "latitude": 46.5009217,
    "longitude": 11.3568029
  },
  {
    "restaurantId": 260,
    "osmId": "556620323",
    "name": "Walther's",
    "cuisine": "italian",
    "phone": "",
    "website": "https://www.walthers.it",
    "municipality": "Bolzano - Bozen",
    "address": "Piazza Walther - Waltherplatz 6",
    "postcode": "39100",
    "nearResort": "Petersberg - Monte San Pietro",
    "distanceToResort_km": 12.0,
    "latitude": 46.498326,
    "longitude": 11.3551986
  },
  {
    "restaurantId": 261,
    "osmId": "556629278",
    "name": "Feichter",
    "cuisine": "",
    "phone": "+39 0471 978768",
    "website": "https://www.hotelfeichter.it/",
    "municipality": "",
    "address": "",
    "postcode": "",
    "nearResort": "Petersberg - Monte San Pietro",
    "distanceToResort_km": 12.0,
    "latitude": 46.4989757,
    "longitude": 11.3570282
  },
  {
    "restaurantId": 262,
    "osmId": "556679612",
    "name": "Milli Eat & drink",
    "cuisine": "pizza;italian",
    "phone": "+39 388 344 0317",
    "website": "https://www.millieatedrink.it/",
    "municipality": "Trento",
    "address": "Via del Suffragio 2",
    "postcode": "31822",
    "nearResort": "3-Tre Vaneze",
    "distanceToResort_km": 5.0,
    "latitude": 46.071873,
    "longitude": 11.1249148
  },
  {
    "restaurantId": 263,
    "osmId": "556679636",
    "name": "Ristorante Pizzeria Green Tower",
    "cuisine": "pizza;regional",
    "phone": "+39 0461 231545",
    "website": "",
    "municipality": "Trento",
    "address": "Via Torre Verde 29",
    "postcode": "31822",
    "nearResort": "3-Tre Vaneze",
    "distanceToResort_km": 5.0,
    "latitude": 46.0719552,
    "longitude": 11.1244405
  },
  {
    "restaurantId": 264,
    "osmId": "557149998",
    "name": "Ristorante Pizzeria Chistè",
    "cuisine": "neapolitan;pizza;fish",
    "phone": "+39 0461 262979",
    "website": "",
    "municipality": "Trento",
    "address": "Via delle Orne 4",
    "postcode": "31822",
    "nearResort": "3-Tre Vaneze",
    "distanceToResort_km": 4.6,
    "latitude": 46.0688418,
    "longitude": 11.1215699
  },
  {
    "restaurantId": 265,
    "osmId": "557150278",
    "name": "Rosa d'Oro",
    "cuisine": "regional;pizza",
    "phone": "+39 0461 261792",
    "website": "https://www.ristoranterosadoro.com",
    "municipality": "",
    "address": "Piazza Santa Maria Maggiore 21",
    "postcode": "31822",
    "nearResort": "3-Tre Vaneze",
    "distanceToResort_km": 4.5,
    "latitude": 46.0683452,
    "longitude": 11.1198902
  },
  {
    "restaurantId": 266,
    "osmId": "557197347",
    "name": "Orient",
    "cuisine": "chinese;japanese;thai",
    "phone": "+39 0461 234435",
    "website": "http://www.ristoranteorient.it",
    "municipality": "Trento",
    "address": "Via Don Giovanni Battista Zanella 11/1",
    "postcode": "31822",
    "nearResort": "3-Tre Vaneze",
    "distanceToResort_km": 4.3,
    "latitude": 46.0674557,
    "longitude": 11.117882
  },
  {
    "restaurantId": 267,
    "osmId": "557197352",
    "name": "Al Duomo",
    "cuisine": "pizza",
    "phone": "+39 0461 237209",
    "website": "",
    "municipality": "Trento",
    "address": "Via Giuseppe Verdi 77",
    "postcode": "31822",
    "nearResort": "3-Tre Vaneze",
    "distanceToResort_km": 4.4,
    "latitude": 46.0669201,
    "longitude": 11.120637
  },