[
  {
    "slopeId": 1,
    "osmId": "10039585",
    "name": "Malghetto",
    "difficulty": "easy",
    "resort": "Folgarida-Marilleva",
    "ref": "6",
    "latitude": 46.2880054,
    "longitude": 10.8436781
  },
  {
    "slopeId": 2,
    "osmId": "20925570",
    "name": "",
    "difficulty": "easy",
    "resort": "Alta Badia Shop & Rental",
    "ref": "51",
    "latitude": 46.6083717,
    "longitude": 11.8985936
  },
  {
    "slopeId": 3,
    "osmId": "20925989",
    "name": "Sponata",
    "difficulty": "intermediate",
    "resort": "Alta Badia Shop & Rental",
    "ref": "24",
    "latitude": 46.598404,
    "longitude": 11.8995047
  },
  {
    "slopeId": 4,
    "osmId": "20925990",
    "name": "",
    "difficulty": "intermediate",
    "resort": "Alta Badia Shop & Rental",
    "ref": "",
    "latitude": 46.5989847,
    "longitude": 11.9004152
  },
  {
    "slopeId": 5,
    "osmId": "22789203",
    "name": "16 Saxner II",
    "difficulty": "intermediate",
    "resort": "16 Saxner II",
    "ref": "16",
    "latitude": 46.8457211,
    "longitude": 11.2891164
  },
  {
    "slopeId": 6,
    "osmId": "22789246",
    "name": "Verbindung Ratschungs Jaufen",
    "difficulty": "easy",
    "resort": "12 Enzian II",
    "ref": "5",
    "latitude": 46.8438035,
    "longitude": 11.3159638
  },
  {
    "slopeId": 7,
    "osmId": "22789249",
    "name": "Kalcher Alm I",
    "difficulty": "intermediate",
    "resort": "Ratschings-Jaufen",
    "ref": "7",
    "latitude": 46.8466286,
    "longitude": 11.3212941
  },
  {
    "slopeId": 8,
    "osmId": "22789257",
    "name": "Verbindung Jaufen-Ratschings",
    "difficulty": "easy",
    "resort": "Ratschings-Jaufen",
    "ref": "6",
    "latitude": 46.8477507,
    "longitude": 11.3122602
  },
  {
    "slopeId": 9,
    "osmId": "22789260",
    "name": "",
    "difficulty": "intermediate",
    "resort": "Ratschings-Jaufen",
    "ref": "",
    "latitude": 46.8469599,
    "longitude": 11.3089788
  },
  {
    "slopeId": 10,
    "osmId": "22789264",
    "name": "",
    "difficulty": "intermediate",
    "resort": "12 Enzian II",
    "ref": "",
    "latitude": 46.8429865,
    "longitude": 11.3101886
  },
  {
    "slopeId": 11,
    "osmId": "22789291",
    "name": "Saxner I",
    "difficulty": "intermediate",
    "resort": "Saxner I",
    "ref": "",
    "latitude": 46.8454402,
    "longitude": 11.2897366
  },
  {
    "slopeId": 12,
    "osmId": "22789301",
    "name": "Wasserfalleralm - Malga Cascata",
    "difficulty": "intermediate",
    "resort": "Wasserfalleralm - Malga Cascata",
    "ref": "",
    "latitude": 46.8434605,
    "longitude": 11.2983945
  },
  {
    "slopeId": 13,
    "osmId": "22789311",
    "name": "Enzian I",
    "difficulty": "intermediate",
    "resort": "12 Enzian II",
    "ref": "11",
    "latitude": 46.8436806,
    "longitude": 11.3038877
  },
  {
    "slopeId": 14,
    "osmId": "22789317",
    "name": "Piste 2C",
    "difficulty": "intermediate",
    "resort": "12 Enzian II",
    "ref": "2c",
    "latitude": 46.8411152,
    "longitude": 11.3044027
  },
  {
    "slopeId": 15,
    "osmId": "22789335",
    "name": "",
    "difficulty": "intermediate",
    "resort": "Blosegg",
    "ref": "",
    "latitude": 46.8478792,
    "longitude": 11.3041747
  },
  {
    "slopeId": 16,
    "osmId": "24310197",
    "name": "Pian Frataces",
    "difficulty": "intermediate",
    "resort": "Belvedere - Col Rodella - Passo Pordoi",
    "ref": "6",
    "latitude": 46.4822185,
    "longitude": 11.8040946
  },
  {
    "slopeId": 17,
    "osmId": "24310357",
    "name": "Campolongo",
    "difficulty": "intermediate",
    "resort": "Arabba",
    "ref": "29",
    "latitude": 46.5162063,
    "longitude": 11.8679309
  },
  {
    "slopeId": 18,
    "osmId": "24310390",
    "name": "Boè",
    "difficulty": "intermediate",
    "resort": "Sellaronda",
    "ref": "1",
    "latitude": 46.5363035,
    "longitude": 11.8707348
  },
  {
    "slopeId": 19,
    "osmId": "24310434",
    "name": "Collegamento Sodlisia - Frara",
    "difficulty": "easy",
    "resort": "Sellaronda",
    "ref": "36A",
    "latitude": 46.5490979,
    "longitude": 11.8441658
  },
  {
    "slopeId": 20,
    "osmId": "24310613",
    "name": "Val Setus",
    "difficulty": "intermediate",
    "resort": "Sellaronda",
    "ref": "",
    "latitude": 46.5521629,
    "longitude": 11.8059948
  },
  {
    "slopeId": 21,
    "osmId": "24310615",
    "name": "Frara - Val Setus",
    "difficulty": "intermediate",
    "resort": "Sellaronda",
    "ref": "",
    "latitude": 46.554261,
    "longitude": 11.8103453
  },
  {
    "slopeId": 22,
    "osmId": "24987937",
    "name": "Avez del Prinzep",
    "difficulty": "advanced",
    "resort": "Avez del Prinzep",
    "ref": "16",
    "latitude": 45.953232,
    "longitude": 11.3097602
  },
  {
    "slopeId": 23,
    "osmId": "25549528",
    "name": "Sponata",
    "difficulty": "intermediate",
    "resort": "Alta Badia Shop & Rental",
    "ref": "27",
    "latitude": 46.5923086,
    "longitude": 11.8929035
  },
  {
    "slopeId": 24,
    "osmId": "25549537",
    "name": "Sponata",
    "difficulty": "intermediate",
    "resort": "Alta Badia Shop & Rental",
    "ref": "24",
    "latitude": 46.5972589,
    "longitude": 11.8976965
  },
  {
    "slopeId": 25,
    "osmId": "26465679",
    "name": "Larchpichl",
    "difficulty": "easy",
    "resort": "Falzeben 2",
    "ref": "",
    "latitude": 46.6354986,
    "longitude": 11.0992173
  },
  {
    "slopeId": 26,
    "osmId": "26589678",
    "name": "",
    "difficulty": "easy",
    "resort": "Falzeben 2",
    "ref": "",
    "latitude": 46.6323481,
    "longitude": 11.1044259
  },
  {
    "slopeId": 27,
    "osmId": "27109443",
    "name": "(53) Pradalago diretta",
    "difficulty": "intermediate",
    "resort": "Campiglio Dolomiti di Brenta",
    "ref": "53",
    "latitude": 46.2462501,
    "longitude": 10.8245925
  },
  {
    "slopeId": 28,
    "osmId": "27175940",
    "name": "(76) Nube d'argento",
    "difficulty": "easy",
    "resort": "Campiglio Dolomiti di Brenta",
    "ref": "76",
    "latitude": 46.2380011,
    "longitude": 10.8455265
  },
  {
    "slopeId": 29,
    "osmId": "27242815",
    "name": "(70) Spinale Direttissima",
    "difficulty": "advanced",
    "resort": "Campiglio Dolomiti di Brenta",
    "ref": "70",
    "latitude": 46.2256333,
    "longitude": 10.8390025
  },
  {
    "slopeId": 30,
    "osmId": "27242909",
    "name": "Rododendro",
    "difficulty": "intermediate",
    "resort": "Skiweg Fossadei - Cioca 2",
    "ref": "101",
    "latitude": 46.1665687,
    "longitude": 10.796873
  },
  {
    "slopeId": 31,
    "osmId": "27658699",
    "name": "Competition",
    "difficulty": "advanced",
    "resort": "Skiweg Fossadei - Cioca 2",
    "ref": "102",
    "latitude": 46.1648881,
    "longitude": 10.7936726
  },
  {
    "slopeId": 32,
    "osmId": "27658700",
    "name": "Mandrel",
    "difficulty": "intermediate",
    "resort": "Skiweg Fossadei - Cioca 2",
    "ref": "106",
    "latitude": 46.1753702,
    "longitude": 10.8127744
  },
  {
    "slopeId": 33,
    "osmId": "29202171",
    "name": "Panorama 2",
    "difficulty": "intermediate",
    "resort": "Klausberg - Monte Chiusetta",
    "ref": "4",
    "latitude": 46.9812324,
    "longitude": 11.9792098
  },
  {
    "slopeId": 34,
    "osmId": "29202172",
    "name": "Panorama 1",
    "difficulty": "advanced",
    "resort": "Klausberg - Monte Chiusetta",
    "ref": "4c",
    "latitude": 46.9773256,
    "longitude": 11.9758948
  },
  {
    "slopeId": 35,
    "osmId": "29202176",
    "name": "Klaussee I (K1)",
    "difficulty": "intermediate",
    "resort": "Klausberg - Monte Chiusetta",
    "ref": "2",
    "latitude": 46.9744613,
    "longitude": 11.9879752
  },
  {
    "slopeId": 36,
    "osmId": "29202177",
    "name": "Almboden",
    "difficulty": "easy",
    "resort": "Klausberg - Monte Chiusetta",
    "ref": "5",
    "latitude": 46.9824439,
    "longitude": 11.9828479
  },
  {
    "slopeId": 37,
    "osmId": "29202302",
    "name": "Dureck (K2)",
    "difficulty": "intermediate",
    "resort": "Klausberg - Monte Chiusetta",
    "ref": "8a",
    "latitude": 46.9654948,
    "longitude": 12.0032838
  },
  {
    "slopeId": 38,
    "osmId": "29202663",
    "name": "Sonnklar",
    "difficulty": "advanced",
    "resort": "Speikboden",
    "ref": "5a",
    "latitude": 46.9188487,
    "longitude": 11.9007561
  },
  {
    "slopeId": 39,
    "osmId": "29202664",
    "name": "Tottomandl",
    "difficulty": "easy",
    "resort": "Speikboden",
    "ref": "6a",
    "latitude": 46.9225716,
    "longitude": 11.9033764
  },
  {
    "slopeId": 40,
    "osmId": "29202667",
    "name": "Seenock sun",
    "difficulty": "advanced",
    "resort": "Speikboden",
    "ref": "3b",
    "latitude": 46.924424,
    "longitude": 11.8990503
  },
  {
    "slopeId": 41,
    "osmId": "29202668",
    "name": "Seenock",
    "difficulty": "intermediate",
    "resort": "Seenock sun",
    "ref": "3a",
    "latitude": 46.9247998,
    "longitude": 11.8967966
  },
  {
    "slopeId": 42,
    "osmId": "29202670",
    "name": "Seenock",
    "difficulty": "intermediate",
    "resort": "Speikboden",
    "ref": "3c",
    "latitude": 46.9237887,
    "longitude": 11.8983061
  },
  {
    "slopeId": 43,
    "osmId": "29204216",
    "name": "Brugger",
    "difficulty": "easy",
    "resort": "Klausberg - Monte Chiusetta",
    "ref": "7",
    "latitude": 46.9929003,
    "longitude": 11.973909
  },
  {
    "slopeId": 44,
    "osmId": "29356805",
    "name": "(50) Pradalago Facile",
    "difficulty": "easy",
    "resort": "Malghette",
    "ref": "50",
    "latitude": 46.2501448,
    "longitude": 10.8145774
  },
  {
    "slopeId": 45,
    "osmId": "29388231",
    "name": "",
    "difficulty": "easy",
    "resort": "Petersberg - Monte San Pietro",
    "ref": "",
    "latitude": 46.3929479,
    "longitude": 11.3874586
  },
  {
    "slopeId": 46,
    "osmId": "29388232",
    "name": "",
    "difficulty": "",
    "resort": "Petersberg - Monte San Pietro",
    "ref": "",
    "latitude": 46.3929665,
    "longitude": 11.3874159
  },
  {
    "slopeId": 47,
    "osmId": "29388233",
    "name": "",
    "difficulty": "easy",
    "resort": "Petersberg - Monte San Pietro",
    "ref": "",
    "latitude": 46.3931897,
    "longitude": 11.389012
  },
  {
    "slopeId": 48,
    "osmId": "29494716",
    "name": "Oberholz",
    "difficulty": "intermediate",
    "resort": "Variante Oberholz",
    "ref": "2",
    "latitude": 46.372245,
    "longitude": 11.5383425
  },
  {
    "slopeId": 49,
    "osmId": "29494926",
    "name": "Variante Absam",
    "difficulty": "intermediate",
    "resort": "Absam",
    "ref": "6a",
    "latitude": 46.3623559,
    "longitude": 11.5457393
  },
  {
    "slopeId": 50,
    "osmId": "29495050",
    "name": "Collegamento Reiteralpe",
    "difficulty": "easy",
    "resort": "Absam",
    "ref": "8a",
    "latitude": 46.3581401,
    "longitude": 11.5372138
  },
  {
    "slopeId": 51,
    "osmId": "29495226",
    "name": "Pampeago",
    "difficulty": "easy",
    "resort": "Absam",
    "ref": "10",
    "latitude": 46.3515835,
    "longitude": 11.5393229
  },
  {
    "slopeId": 52,
    "osmId": "29496004",
    "name": "Val Todesca",
    "difficulty": "intermediate",
    "resort": "Latemar Dolomites",
    "ref": "25",
    "latitude": 46.3458633,
    "longitude": 11.5428962
  },
  {
    "slopeId": 53,
    "osmId": "29503599",
    "name": "Salvan",
    "difficulty": "easy",
    "resort": "Buffaure - Ciampac",
    "ref": "",
    "latitude": 46.4311234,
    "longitude": 11.7201513
  },
  {
    "slopeId": 54,
    "osmId": "29503600",
    "name": "Buffaure di Sotto",
    "difficulty": "intermediate",
    "resort": "Buffaure - Ciampac",
    "ref": "",
    "latitude": 46.4311441,
    "longitude": 11.7204742
  },
  {
    "slopeId": 55,
    "osmId": "29503601",
    "name": "Buffaure Panorama",
    "difficulty": "intermediate",
    "resort": "Buffaure - Ciampac",
    "ref": "",
    "latitude": 46.423754,
    "longitude": 11.717019
  },
  {
    "slopeId": 56,
    "osmId": "29550590",
    "name": "Belvedere",
    "difficulty": "easy",
    "resort": "Kronplatz - Plan de Corones",
    "ref": "",
    "latitude": 46.7366949,
    "longitude": 11.9729054
  },
  {
    "slopeId": 57,
    "osmId": "29552826",
    "name": "Ruipa",
    "difficulty": "easy",
    "resort": "Kronplatz - Plan de Corones",
    "ref": "",
    "latitude": 46.7446624,
    "longitude": 11.9783715
  },
  {
    "slopeId": 58,
    "osmId": "29552885",
    "name": "Pracken",
    "difficulty": "easy",
    "resort": "Kronplatz - Plan de Corones",
    "ref": "",
    "latitude": 46.7510932,
    "longitude": 11.9877688
  },
  {
    "slopeId": 59,
    "osmId": "29559236",
    "name": "Gassl",
    "difficulty": "intermediate",
    "resort": "Kronplatz - Plan de Corones",
    "ref": "",
    "latitude": 46.7450985,
    "longitude": 11.9811398
  },
  {
    "slopeId": 60,
    "osmId": "29559575",
    "name": "Alpen",
    "difficulty": "easy",
    "resort": "Kronplatz - Plan de Corones",
    "ref": "",
    "latitude": 46.7473664,
    "longitude": 11.9785988
  },
  {
    "slopeId": 61,
    "osmId": "29897969",
    "name": "La Longia",
    "difficulty": "intermediate",
    "resort": "Val Gardena",
    "ref": "",
    "latitude": 46.5912498,
    "longitude": 11.7170661
  },
  {
    "slopeId": 62,
    "osmId": "29919966",
    "name": "Fermeda 1",
    "difficulty": "intermediate",
    "resort": "Val Gardena",
    "ref": "",
    "latitude": 46.5920246,
    "longitude": 11.7350777
  },
  {
    "slopeId": 63,
    "osmId": "29920096",
    "name": "Fermeda 1",
    "difficulty": "intermediate",
    "resort": "Val Gardena",
    "ref": "",
    "latitude": 46.59893,
    "longitude": 11.7285263
  },
  {
    "slopeId": 64,
    "osmId": "29920101",
    "name": "Pitla Pela Variante",
    "difficulty": "intermediate",
    "resort": "Centro di fondo Vallunga",
    "ref": "",
    "latitude": 46.5846499,
    "longitude": 11.7519026
  },
  {
    "slopeId": 65,
    "osmId": "29920155",
    "name": "Gran Pela",
    "difficulty": "advanced",
    "resort": "Centro di fondo Vallunga",
    "ref": "",
    "latitude": 46.5834861,
    "longitude": 11.7482697
  },
  {
    "slopeId": 66,
    "osmId": "29996085",
    "name": "",
    "difficulty": "intermediate",
    "resort": "Bravo",
    "ref": "",
    "latitude": 46.5423629,
    "longitude": 11.7191503
  },
  {
    "slopeId": 67,
    "osmId": "30001889",
    "name": "Ciampinoi 3",
    "difficulty": "advanced",
    "resort": "Sport Schenk",
    "ref": "3",
    "latitude": 46.5451087,
    "longitude": 11.7519777
  },
  {
    "slopeId": 68,
    "osmId": "30001890",
    "name": "Ciampinoi - Piza Pranseies",
    "difficulty": "intermediate",
    "resort": "Sport Schenk",
    "ref": "",
    "latitude": 46.5385775,
    "longitude": 11.7525317
  },
  {
    "slopeId": 69,
    "osmId": "30001896",
    "name": "Ciampinoi 5",
    "difficulty": "intermediate",
    "resort": "Sport Schenk",
    "ref": "5",
    "latitude": 46.5362215,
    "longitude": 11.7536407
  },
  {
    "slopeId": 70,
    "osmId": "30002144",
    "name": "Saslong",
    "difficulty": "advanced",
    "resort": "Val Gardena",
    "ref": "",
    "latitude": 46.5479676,
    "longitude": 11.7399654
  },
  {
    "slopeId": 71,
    "osmId": "30002173",
    "name": "Saslong B",
    "difficulty": "intermediate",
    "resort": "Val Gardena",
    "ref": "",
    "latitude": 46.5496787,
    "longitude": 11.7403055
  },
  {
    "slopeId": 72,
    "osmId": "30002342",
    "name": "Tremor",
    "difficulty": "advanced",
    "resort": "Val Gardena",
    "ref": "",
    "latitude": 46.5400105,
    "longitude": 11.7476315
  },
  {
    "slopeId": 73,
    "osmId": "30002730",
    "name": "Piz Sella 5",
    "difficulty": "intermediate",
    "resort": "Sport Schenk",
    "ref": "",
    "latitude": 46.5343086,
    "longitude": 11.7523442
  },
  {
    "slopeId": 74,
    "osmId": "30002733",
    "name": "Piz Sella 5",
    "difficulty": "intermediate",
    "resort": "Sport Schenk",
    "ref": "",
    "latitude": 46.5329111,
    "longitude": 11.7595804
  },
  {
    "slopeId": 75,
    "osmId": "30002736",
    "name": "Plan de Gralba",
    "difficulty": "easy",
    "resort": "Sport Schenk",
    "ref": "",
    "latitude": 46.5334313,
    "longitude": 11.77063
  },
  {
    "slopeId": 76,
    "osmId": "30002738",
    "name": "Plan de Gralba",
    "difficulty": "easy",
    "resort": "Sport Schenk",
    "ref": "",
    "latitude": 46.5328086,
    "longitude": 11.7704074
  },
  {
    "slopeId": 77,
    "osmId": "30005092",
    "name": "Martinelli",
    "difficulty": "intermediate",
    "resort": "Belvedere - Col Rodella - Passo Pordoi",
    "ref": "",
    "latitude": 46.5055435,
    "longitude": 11.7449591
  },
  {
    "slopeId": 78,
    "osmId": "30005097",
    "name": "",
    "difficulty": "intermediate",
    "resort": "Belvedere - Col Rodella - Passo Pordoi",
    "ref": "",
    "latitude": 46.5049777,
    "longitude": 11.7454046
  },
  {
    "slopeId": 79,
    "osmId": "30005103",
    "name": "Sas Betit",
    "difficulty": "easy",
    "resort": "Belvedere - Col Rodella - Passo Pordoi",
    "ref": "",
    "latitude": 46.5163638,
    "longitude": 11.7631387
  },
  {
    "slopeId": 80,
    "osmId": "30007267",
    "name": "Tramans",
    "difficulty": "intermediate",
    "resort": "Val Gardena",
    "ref": "",
    "latitude": 46.5332095,
    "longitude": 11.7433958
  },
  {
    "slopeId": 81,
    "osmId": "30007395",
    "name": "Alpha",
    "difficulty": "advanced",
    "resort": "Val Gardena",
    "ref": "",
    "latitude": 46.5429122,
    "longitude": 11.7229978
  },
  {
    "slopeId": 82,
    "osmId": "30007449",
    "name": "",
    "difficulty": "intermediate",
    "resort": "Val Gardena",
    "ref": "",
    "latitude": 46.5396208,
    "longitude": 11.7249231
  },
  {
    "slopeId": 83,
    "osmId": "30007527",
    "name": "Bravo",
    "difficulty": "intermediate",
    "resort": "Val Gardena",
    "ref": "",
    "latitude": 46.5431961,
    "longitude": 11.721923
  },
  {
    "slopeId": 84,
    "osmId": "30074420",
    "name": "Vallon",
    "difficulty": "advanced",
    "resort": "Sellaronda",
    "ref": "1",
    "latitude": 46.5236831,
    "longitude": 11.8559301
  },
  {
    "slopeId": 85,
    "osmId": "30074423",
    "name": "Boé",
    "difficulty": "intermediate",
    "resort": "Alta Badia",
    "ref": "1",
    "latitude": 46.5483877,
    "longitude": 11.8716678
  },
  {
    "slopeId": 86,
    "osmId": "30074424",
    "name": "Variante",
    "difficulty": "easy",
    "resort": "Alta Badia",
    "ref": "45A",
    "latitude": 46.5638822,
    "longitude": 11.8560911
  },
  {
    "slopeId": 87,
    "osmId": "30074427",
    "name": "Forcelles",
    "difficulty": "intermediate",
    "resort": "Sellaronda",
    "ref": "50",
    "latitude": 46.5610512,
    "longitude": 11.8458355
  },
  {
    "slopeId": 88,
    "osmId": "30074429",
    "name": "Sodlisia",
    "difficulty": "easy",
    "resort": "Sellaronda",
    "ref": "36",
    "latitude": 46.5501114,
    "longitude": 11.8492369
  },
  {
    "slopeId": 89,
    "osmId": "30074432",
    "name": "Stella Alpina",
    "difficulty": "easy",
    "resort": "Alta Badia",
    "ref": "49",
    "latitude": 46.565328,
    "longitude": 11.8518586
  },
  {
    "slopeId": 90,
    "osmId": "30074434",
    "name": "Colfosco 2",
    "difficulty": "easy",
    "resort": "Alta Badia",
    "ref": "45",
    "latitude": 46.5581064,
    "longitude": 11.8536754
  },
  {
    "slopeId": 91,
    "osmId": "30074436",
    "name": "Roby",
    "difficulty": "easy",
    "resort": "Alta Badia",
    "ref": "19",
    "latitude": 46.5553246,
    "longitude": 11.9032423
  },
  {
    "slopeId": 92,
    "osmId": "30074437",
    "name": "La Fraina",
    "difficulty": "intermediate",
    "resort": "Dolomiti Superski",
    "ref": "23",
    "latitude": 46.558365,
    "longitude": 11.917913
  },
  {
    "slopeId": 93,
    "osmId": "30074438",
    "name": "Bamby",
    "difficulty": "easy",
    "resort": "Alta Badia",
    "ref": "24",
    "latitude": 46.5684545,
    "longitude": 11.9164169
  },
  {
    "slopeId": 94,
    "osmId": "30074439",
    "name": "Gran Risa",
    "difficulty": "advanced",
    "resort": "Alta Badia Shop & Rental",
    "ref": "",
    "latitude": 46.5729854,
    "longitude": 11.9032077
  },
  {
    "slopeId": 95,
    "osmId": "30074443",
    "name": "Jardinaccia A",
    "difficulty": "intermediate",
    "resort": "Alta Badia Shop & Rental",
    "ref": "26",
    "latitude": 46.5873013,
    "longitude": 11.8917495
  },
  {
    "slopeId": 96,
    "osmId": "30074444",
    "name": "Jardinaccia B",
    "difficulty": "easy",
    "resort": "Alta Badia Shop & Rental",
    "ref": "25",
    "latitude": 46.5861041,
    "longitude": 11.8942691
  },
  {
    "slopeId": 97,
    "osmId": "30074445",
    "name": "Colfosco 2",
    "difficulty": "easy",
    "resort": "Sellaronda",
    "ref": "45",
    "latitude": 46.5536969,
    "longitude": 11.8525501
  },
  {
    "slopeId": 98,
    "osmId": "30074446",
    "name": "Colfosco 2",
    "difficulty": "easy",
    "resort": "Sellaronda",
    "ref": "45",
    "latitude": 46.5515283,
    "longitude": 11.8539066
  },
  {
    "slopeId": 99,
    "osmId": "30074449",
    "name": "Pralongià variante",
    "difficulty": "easy",
    "resort": "Dolomiti Superski",
    "ref": "8A",
    "latitude": 46.5371722,
    "longitude": 11.9025525
  },
  {
    "slopeId": 100,
    "osmId": "30074451",
    "name": "Pralongià II",
    "difficulty": "easy",
    "resort": "Dolomiti Superski",
    "ref": "8",
    "latitude": 46.5365584,
    "longitude": 11.9019873
  },
  {
    "slopeId": 101,
    "osmId": "30074452",
    "name": "Seggiovia Pralongiá",
    "difficulty": "easy",
    "resort": "Dolomiti Superski",
    "ref": "21B",
    "latitude": 46.5326606,
    "longitude": 11.9036324
  },
  {
    "slopeId": 102,
    "osmId": "30074453",
    "name": "Seggiovia Pralongiá - Pralongiá II",
    "difficulty": "easy",
    "resort": "Dolomiti Superski",
    "ref": "8B",
    "latitude": 46.5362813,
    "longitude": 11.9052699
  },
  {
    "slopeId": 103,
    "osmId": "30074454",
    "name": "",
    "difficulty": "easy",
    "resort": "Dolomiti Superski",
    "ref": "",
    "latitude": 46.5350697,
    "longitude": 11.904608
  },
  {
    "slopeId": 104,
    "osmId": "30074455",
    "name": "Biok - Pralongia II",
    "difficulty": "easy",
    "resort": "Dolomiti Superski",
    "ref": "7",
    "latitude": 46.5431792,
    "longitude": 11.9070408
  },
  {
    "slopeId": 105,
    "osmId": "30074456",
    "name": "Biok",
    "difficulty": "easy",
    "resort": "Dolomiti Superski",
    "ref": "13",
    "latitude": 46.550967,
    "longitude": 11.912574
  },
  {
    "slopeId": 106,
    "osmId": "30074457",
    "name": "",
    "difficulty": "easy",
    "resort": "Dolomiti Superski",
    "ref": "14",
    "latitude": 46.5535689,
    "longitude": 11.9118132
  },
  {
    "slopeId": 107,
    "osmId": "30074458",
    "name": "",
    "difficulty": "easy",
    "resort": "Dolomiti Superski",
    "ref": "28",
    "latitude": 46.5552139,
    "longitude": 11.9184198
  },
  {
    "slopeId": 108,
    "osmId": "30074459",
    "name": "La Brancia",
    "difficulty": "easy",
    "resort": "Alta Badia",
    "ref": "15A",
    "latitude": 46.5575522,
    "longitude": 11.9098384
  },
  {
    "slopeId": 109,
    "osmId": "30074460",
    "name": "",
    "difficulty": "easy",
    "resort": "Alta Badia",
    "ref": "",
    "latitude": 46.5528931,
    "longitude": 11.9066346
  },
  {
    "slopeId": 110,
    "osmId": "30074461",
    "name": "Braia Fraida - Roby",
    "difficulty": "easy",
    "resort": "Alta Badia",
    "ref": "20",
    "latitude": 46.5539925,
    "longitude": 11.9033405
  },
  {
    "slopeId": 111,
    "osmId": "30074462",
    "name": "",
    "difficulty": "easy",
    "resort": "Alta Badia",
    "ref": "",
    "latitude": 46.5560957,
    "longitude": 11.8994502
  },
  {
    "slopeId": 112,
    "osmId": "30074464",
    "name": "Altin",
    "difficulty": "intermediate",
    "resort": "Alta Badia Shop & Rental",
    "ref": "17",
    "latitude": 46.572188,
    "longitude": 11.9089951
  },
  {
    "slopeId": 113,
    "osmId": "30074468",
    "name": "Codes",
    "difficulty": "easy",
    "resort": "Dolomiti Superski",
    "ref": "30",
    "latitude": 46.5585696,
    "longitude": 11.9232787
  },
  {
    "slopeId": 114,
    "osmId": "30074469",
    "name": "Col Alt 4",
    "difficulty": "intermediate",
    "resort": "Alta Badia",
    "ref": "4",
    "latitude": 46.5489033,
    "longitude": 11.8825094
  },
  {
    "slopeId": 115,
    "osmId": "30074474",
    "name": "Braia Fraida",
    "difficulty": "easy",
    "resort": "Alta Badia",
    "ref": "5",
    "latitude": 46.5513857,
    "longitude": 11.9009645
  },
  {
    "slopeId": 116,
    "osmId": "30074476",
    "name": "Bamby 2",
    "difficulty": "intermediate",
    "resort": "Alta Badia",
    "ref": "16B",
    "latitude": 46.5634723,
    "longitude": 11.9102959
  },
  {
    "slopeId": 117,
    "osmId": "30075928",
    "name": "Colz",
    "difficulty": "easy",
    "resort": "Alta Badia Shop & Rental",
    "ref": "",
    "latitude": 46.584137,
    "longitude": 11.9006774
  },
  {
    "slopeId": 118,
    "osmId": "30075929",
    "name": "",
    "difficulty": "advanced",
    "resort": "Alta Badia Shop & Rental",
    "ref": "",
    "latitude": 46.5872483,
    "longitude": 11.8881927
  },
  {
    "slopeId": 119,
    "osmId": "30075930",
    "name": "Colz - Donin",
    "difficulty": "easy",
    "resort": "Alta Badia Shop & Rental",
    "ref": "",
    "latitude": 46.5837062,
    "longitude": 11.9020365
  },
  {
    "slopeId": 120,
    "osmId": "30075933",
    "name": "",
    "difficulty": "easy",
    "resort": "Alta Badia Shop & Rental",
    "ref": "",
    "latitude": 46.6086441,
    "longitude": 11.8967626
  },
  {
    "slopeId": 121,
    "osmId": "30075934",
    "name": "La Crusc",
    "difficulty": "easy",
    "resort": "Alta Badia Shop & Rental",
    "ref": "52",
    "latitude": 46.6106307,
    "longitude": 11.9101527
  },
  {
    "slopeId": 122,
    "osmId": "30075938",
    "name": "La Crusc 2",
    "difficulty": "easy",
    "resort": "Alta Badia Shop & Rental",
    "ref": "53",
    "latitude": 46.6132145,
    "longitude": 11.9302989
  },
  {
    "slopeId": 123,
    "osmId": "30075940",
    "name": "Biok - Saraghes",
    "difficulty": "easy",
    "resort": "Dolomiti Superski",
    "ref": "10",
    "latitude": 46.5484126,
    "longitude": 11.9207813
  },
  {
    "slopeId": 124,
    "osmId": "30120249",
    "name": "Pitla Pela",
    "difficulty": "intermediate",
    "resort": "Centro di fondo Vallunga",
    "ref": "",
    "latitude": 46.5838181,
    "longitude": 11.7495517
  },
  {
    "slopeId": 125,
    "osmId": "30121435",
    "name": "Ciampinoi 4",
    "difficulty": "intermediate",
    "resort": "Sport Schenk",
    "ref": "4",
    "latitude": 46.5446922,
    "longitude": 11.7557659
  },
  {
    "slopeId": 126,
    "osmId": "30121441",
    "name": "Ciampinoi 6",
    "difficulty": "intermediate",
    "resort": "Sport Schenk",
    "ref": "6",
    "latitude": 46.5353968,
    "longitude": 11.7589241
  },
  {
    "slopeId": 127,
    "osmId": "30122272",
    "name": "Collegamento Alpha - Bravo",
    "difficulty": "intermediate",
    "resort": "Val Gardena",
    "ref": "",
    "latitude": 46.5432244,
    "longitude": 11.7192035
  },
  {
    "slopeId": 128,
    "osmId": "30122436",
    "name": "",
    "difficulty": "intermediate",
    "resort": "Val Gardena",
    "ref": "",
    "latitude": 46.5394206,
    "longitude": 11.7255795
  },
  {
    "slopeId": 129,
    "osmId": "30136518",
    "name": "La Longia - Furnes",
    "difficulty": "intermediate",
    "resort": "Val Gardena",
    "ref": "",
    "latitude": 46.5832956,
    "longitude": 11.6892636
  },
  {
    "slopeId": 130,
    "osmId": "30213203",
    "name": "Colraiser - Fermeda",
    "difficulty": "easy",
    "resort": "Centro di fondo Vallunga",
    "ref": "",
    "latitude": 46.5851417,
    "longitude": 11.7468932
  },
  {
    "slopeId": 131,
    "osmId": "30421855",
    "name": "Dantercepies - Selva",
    "difficulty": "easy",
    "resort": "Sport Schenk",
    "ref": "",
    "latitude": 46.5561134,
    "longitude": 11.7677692
  },
  {
    "slopeId": 132,
    "osmId": "30421857",
    "name": "Dantercepies - Selva",
    "difficulty": "easy",
    "resort": "Sport Schenk",
    "ref": "",
    "latitude": 46.5549826,
    "longitude": 11.764915
  },
  {
    "slopeId": 133,
    "osmId": "30763043",
    "name": "",
    "difficulty": "",
    "resort": "Mittager 1 - Catino 1",
    "ref": "",
    "latitude": 46.6721162,
    "longitude": 11.3072189
  },
  {
    "slopeId": 134,
    "osmId": "30792445",
    "name": "Tomba",
    "difficulty": "advanced",
    "resort": "Vigo di Fassa - Ciampedie",
    "ref": "",
    "latitude": 46.4349986,
    "longitude": 11.6572866
  },
  {
    "slopeId": 135,
    "osmId": "30792447",
    "name": "Vajolet 1",
    "difficulty": "easy",
    "resort": "Vigo di Fassa - Ciampedie",
    "ref": "",
    "latitude": 46.4409156,
    "longitude": 11.6868253
  },
  {
    "slopeId": 136,
    "osmId": "30804946",
    "name": "22 Frommer",
    "difficulty": "intermediate",
    "resort": "22 Frommer",
    "ref": "",
    "latitude": 46.4415328,
    "longitude": 11.5976153
  },
  {
    "slopeId": 137,
    "osmId": "30804947",
    "name": "24 Laurin I",
    "difficulty": "easy",
    "resort": "24 Laurin I",
    "ref": "",
    "latitude": 46.4389803,
    "longitude": 11.5763565
  },
  {
    "slopeId": 138,
    "osmId": "31261330",
    "name": "Corno Bianco",
    "difficulty": "intermediate",
    "resort": "Jochgrimm",
    "ref": "89",
    "latitude": 46.3503062,
    "longitude": 11.4505885
  },
  {
    "slopeId": 139,
    "osmId": "31261351",
    "name": "Collegamento bianconero",
    "difficulty": "easy",
    "resort": "Jochgrimm",
    "ref": "93",
    "latitude": 46.3462127,
    "longitude": 11.4480975
  },
  {
    "slopeId": 140,
    "osmId": "31261385",
    "name": "La Rocca",
    "difficulty": "intermediate",
    "resort": "Jochgrimm",
    "ref": "90",
    "latitude": 46.3395663,
    "longitude": 11.4513292
  },
  {
    "slopeId": 141,
    "osmId": "31261421",
    "name": "Fanti",
    "difficulty": "easy",
    "resort": "Jochgrimm",
    "ref": "91",
    "latitude": 46.3438528,
    "longitude": 11.4551617
  },
  {
    "slopeId": 142,
    "osmId": "31261451",
    "name": "",
    "difficulty": "easy",
    "resort": "Jochgrimm",
    "ref": "",
    "latitude": 46.343356,
    "longitude": 11.4531099
  },
  {
    "slopeId": 143,
    "osmId": "31261455",
    "name": "La Rocca",
    "difficulty": "intermediate",
    "resort": "Jochgrimm",
    "ref": "90",
    "latitude": 46.3421644,
    "longitude": 11.4524818
  },
  {
    "slopeId": 144,
    "osmId": "31261481",
    "name": "",
    "difficulty": "intermediate",
    "resort": "Jochgrimm",
    "ref": "",
    "latitude": 46.3509926,
    "longitude": 11.4488753
  },
  {
    "slopeId": 145,
    "osmId": "31724460",
    "name": "Marchner",
    "difficulty": "easy",
    "resort": "Kronplatz - Plan de Corones",
    "ref": "28",
    "latitude": 46.7350908,
    "longitude": 11.9838976
  },
  {
    "slopeId": 146,
    "osmId": "31724461",
    "name": "Pré da Peres 32 V",
    "difficulty": "intermediate",
    "resort": "Kronplatz - Plan de Corones",
    "ref": "32",
    "latitude": 46.7174524,
    "longitude": 11.9680442
  },
  {
    "slopeId": 147,
    "osmId": "31724462",
    "name": "Pre da Peres 32",
    "difficulty": "intermediate",
    "resort": "Kronplatz - Plan de Corones",
    "ref": "32R",
    "latitude": 46.7193269,
    "longitude": 11.9671596
  },
  {
    "slopeId": 148,
    "osmId": "31724463",
    "name": "Col Toron",
    "difficulty": "intermediate",
    "resort": "Kronplatz - Plan de Corones",
    "ref": "34",
    "latitude": 46.718677,
    "longitude": 11.9646341
  },
  {
    "slopeId": 149,
    "osmId": "31724466",
    "name": "Piz de Plaies",
    "difficulty": "intermediate",
    "resort": "Antermoia",
    "ref": "41",
    "latitude": 46.6966397,
    "longitude": 11.915661
  },
  {
    "slopeId": 150,
    "osmId": "32126456",
    "name": "Salere",
    "difficulty": "intermediate",
    "resort": "Arabba",
    "ref": "1",
    "latitude": 46.4729534,
    "longitude": 11.8672826
  },
  {
    "slopeId": 151,
    "osmId": "32126700",
    "name": "Col Pradat",
    "difficulty": "advanced",
    "resort": "Alta Badia",
    "ref": "45",
    "latitude": 46.5631429,
    "longitude": 11.8562801
  },
  {
    "slopeId": 152,
    "osmId": "32146115",
    "name": "La Crusc 2",
    "difficulty": "easy",
    "resort": "Alta Badia Shop & Rental",
    "ref": "53",
    "latitude": 46.6138553,
    "longitude": 11.9353487
  },
  {
    "slopeId": 153,
    "osmId": "32150676",
    "name": "Bamby 1",
    "difficulty": "intermediate",
    "resort": "Alta Badia",
    "ref": "16A",
    "latitude": 46.5614119,
    "longitude": 11.9091556
  },
  {
    "slopeId": 154,
    "osmId": "32150677",
    "name": "Piz Sorega A",
    "difficulty": "intermediate",
    "resort": "Dolomiti Superski",
    "ref": "12",
    "latitude": 46.5621238,
    "longitude": 11.9305116
  },
  {
    "slopeId": 155,
    "osmId": "32150678",
    "name": "Piz Sorega B",
    "difficulty": "easy",
    "resort": "Dolomiti Superski",
    "ref": "11",
    "latitude": 46.5545543,
    "longitude": 11.9299549
  },
  {
    "slopeId": 156,
    "osmId": "32150679",
    "name": "La Para",
    "difficulty": "easy",
    "resort": "Dolomiti Superski",
    "ref": "29",
    "latitude": 46.5518292,
    "longitude": 11.910061
  },
  {
    "slopeId": 157,
    "osmId": "32150681",
    "name": "Incisa",
    "difficulty": "easy",
    "resort": "Dolomiti Superski",
    "ref": "21",
    "latitude": 46.5308349,
    "longitude": 11.907972
  },
  {
    "slopeId": 158,
    "osmId": "32150682",
    "name": "Pista del sole",
    "difficulty": "easy",
    "resort": "Dolomiti Superski",
    "ref": "34",
    "latitude": 46.5249651,
    "longitude": 11.9120796
  },
  {
    "slopeId": 159,
    "osmId": "32151003",
    "name": "",
    "difficulty": "easy",
    "resort": "Alta Badia Shop & Rental",
    "ref": "",
    "latitude": 46.5840457,
    "longitude": 11.9058134
  },
  {
    "slopeId": 160,
    "osmId": "32151004",
    "name": "",
    "difficulty": "easy",
    "resort": "Alta Badia Shop & Rental",
    "ref": "",
    "latitude": 46.5839134,
    "longitude": 11.905755
  },
  {
    "slopeId": 161,
    "osmId": "32151005",
    "name": "La Brancia - Pralongiá I",
    "difficulty": "easy",
    "resort": "Dolomiti Superski",
    "ref": "6",
    "latitude": 46.546461,
    "longitude": 11.9049698
  },
  {
    "slopeId": 162,
    "osmId": "32151006",
    "name": "La Marmotta - Planac",
    "difficulty": "intermediate",
    "resort": "Dolomiti Superski",
    "ref": "21A",
    "latitude": 46.53324,
    "longitude": 11.8956745
  },
  {
    "slopeId": 163,
    "osmId": "32151007",
    "name": "Pralongià II",
    "difficulty": "easy",
    "resort": "Alta Badia",
    "ref": "8",
    "latitude": 46.5388114,
    "longitude": 11.8909369
  },
  {
    "slopeId": 164,
    "osmId": "32151008",
    "name": "Pralongià I - Arlara",
    "difficulty": "easy",
    "resort": "Alta Badia",
    "ref": "5A",
    "latitude": 46.5455251,
    "longitude": 11.8941511
  },
  {
    "slopeId": 165,
    "osmId": "32151010",
    "name": "Costes da l'Ega",
    "difficulty": "easy",
    "resort": "Alta Badia",
    "ref": "8",
    "latitude": 46.5471844,
    "longitude": 11.8724988
  },
  {
    "slopeId": 166,
    "osmId": "32151011",
    "name": "Costes da l'Ega",
    "difficulty": "easy",
    "resort": "Alta Badia",
    "ref": "8",
    "latitude": 46.5459707,
    "longitude": 11.8759268
  },
  {
    "slopeId": 167,
    "osmId": "32151012",
    "name": "Costes da l'Ega",
    "difficulty": "easy",
    "resort": "Alta Badia",
    "ref": "8",
    "latitude": 46.54656,
    "longitude": 11.8739334
  },
  {
    "slopeId": 168,
    "osmId": "32196077",
    "name": "Vallelunga",
    "difficulty": "advanced",
    "resort": "Centro di fondo Vallunga",
    "ref": "",
    "latitude": 46.5596072,
    "longitude": 11.7740429
  },
  {
    "slopeId": 169,
    "osmId": "32196964",
    "name": "Cir",
    "difficulty": "advanced",
    "resort": "Centro di fondo Vallunga",
    "ref": "",
    "latitude": 46.5555751,
    "longitude": 11.7864186
  },
  {
    "slopeId": 170,
    "osmId": "32196965",
    "name": "Dantercepies",
    "difficulty": "intermediate",
    "resort": "Centro di fondo Vallunga",
    "ref": "",
    "latitude": 46.55334,
    "longitude": 11.7852404
  },
  {
    "slopeId": 171,
    "osmId": "32196968",
    "name": "Panorama",
    "difficulty": "intermediate",
    "resort": "Centro di fondo Vallunga",
    "ref": "",
    "latitude": 46.5510726,
    "longitude": 11.7959035
  },
  {
    "slopeId": 172,
    "osmId": "32200057",
    "name": "",
    "difficulty": "intermediate",
    "resort": "Centro di fondo Vallunga",
    "ref": "",
    "latitude": 46.5538033,
    "longitude": 11.7997578
  },
  {
    "slopeId": 173,
    "osmId": "32200059",
    "name": "Frara Variante",
    "difficulty": "easy",
    "resort": "Sellaronda",
    "ref": "40A",
    "latitude": 46.5473179,
    "longitude": 11.8367108
  },
  {
    "slopeId": 174,
    "osmId": "32200060",
    "name": "Frara",
    "difficulty": "easy",
    "resort": "Sellaronda",
    "ref": "40",
    "latitude": 46.5478617,
    "longitude": 11.8367108
  },
  {
    "slopeId": 175,
    "osmId": "32211809",
    "name": "3-Tre",
    "difficulty": "intermediate",
    "resort": "Belvedere - Col Rodella - Passo Pordoi",
    "ref": "11",
    "latitude": 46.4965105,
    "longitude": 11.7693396
  },
  {
    "slopeId": 176,
    "osmId": "32212413",
    "name": "Pian Frataces",
    "difficulty": "intermediate",
    "resort": "Belvedere - Col Rodella - Passo Pordoi",
    "ref": "6",
    "latitude": 46.4841936,
    "longitude": 11.7971804
  },
  {
    "slopeId": 177,
    "osmId": "32212416",
    "name": "Col dei Rossi",
    "difficulty": "intermediate",
    "resort": "Belvedere - Col Rodella - Passo Pordoi",
    "ref": "5",
    "latitude": 46.4786241,
    "longitude": 11.7956418
  },
  {
    "slopeId": 178,
    "osmId": "32212417",
    "name": "Vernel",
    "difficulty": "intermediate",
    "resort": "Belvedere - Col Rodella - Passo Pordoi",
    "ref": "2",
    "latitude": 46.4758386,
    "longitude": 11.8047732
  },
  {
    "slopeId": 179,
    "osmId": "32212418",
    "name": "Belvedere I",
    "difficulty": "intermediate",
    "resort": "Belvedere - Col Rodella - Passo Pordoi",
    "ref": "40",
    "latitude": 46.4814427,
    "longitude": 11.8174917
  },
  {
    "slopeId": 180,
    "osmId": "32230287",
    "name": "Boè - Crep de Mont",
    "difficulty": "intermediate",
    "resort": "Sellaronda",
    "ref": "2",
    "latitude": 46.5294736,
    "longitude": 11.8724862
  },
  {
    "slopeId": 181,
    "osmId": "32230293",
    "name": "Crep de Mont",
    "difficulty": "easy",
    "resort": "Alta Badia",
    "ref": "2",
    "latitude": 46.5339599,
    "longitude": 11.8806388
  },
  {
    "slopeId": 182,
    "osmId": "32230518",
    "name": "Costes da l'Ega",
    "difficulty": "easy",
    "resort": "Alta Badia",
    "ref": "",
    "latitude": 46.5447397,
    "longitude": 11.8790786
  },
  {
    "slopeId": 183,
    "osmId": "32463010",
    "name": "",
    "difficulty": "intermediate",
    "resort": "Belvedere - Col Rodella - Passo Pordoi",
    "ref": "",
    "latitude": 46.4909597,
    "longitude": 11.7824719
  },
  {
    "slopeId": 184,
    "osmId": "32479025",
    "name": "",
    "difficulty": "intermediate",
    "resort": "Belvedere - Col Rodella - Passo Pordoi",
    "ref": "",
    "latitude": 46.4914849,
    "longitude": 11.7815972
  },
  {
    "slopeId": 185,
    "osmId": "32479026",
    "name": "",
    "difficulty": "intermediate",
    "resort": "Belvedere - Col Rodella - Passo Pordoi",
    "ref": "",
    "latitude": 46.4913137,
    "longitude": 11.7818787
  },
  {
    "slopeId": 186,
    "osmId": "32479027",
    "name": "",
    "difficulty": "intermediate",
    "resort": "Belvedere - Col Rodella - Passo Pordoi",
    "ref": "",
    "latitude": 46.4909635,
    "longitude": 11.782471
  },
  {
    "slopeId": 187,
    "osmId": "32479030",
    "name": "",
    "difficulty": "intermediate",
    "resort": "Belvedere - Col Rodella - Passo Pordoi",
    "ref": "",
    "latitude": 46.4913732,
    "longitude": 11.7819102
  },
  {
    "slopeId": 188,
    "osmId": "32547984",
    "name": "Belvedere II",
    "difficulty": "intermediate",
    "resort": "Belvedere - Col Rodella - Passo Pordoi",
    "ref": "41",
    "latitude": 46.482611,
    "longitude": 11.8176076
  },
  {
    "slopeId": 189,
    "osmId": "32548148",
    "name": "Val Setus",
    "difficulty": "intermediate",
    "resort": "Centro di fondo Vallunga",
    "ref": "",
    "latitude": 46.5541522,
    "longitude": 11.8023143
  },
  {
    "slopeId": 190,
    "osmId": "32558580",
    "name": "Collegamento Ciampinoi - Costabella",
    "difficulty": "intermediate",
    "resort": "Sport Schenk",
    "ref": "",
    "latitude": 46.5494496,
    "longitude": 11.764712
  },
  {
    "slopeId": 191,
    "osmId": "32558799",
    "name": "Dantercepies",
    "difficulty": "easy",
    "resort": "Centro di fondo Vallunga",
    "ref": "",
    "latitude": 46.5525334,
    "longitude": 11.7971265
  },
  {
    "slopeId": 192,
    "osmId": "32559110",
    "name": "",
    "difficulty": "intermediate",
    "resort": "Belvedere - Col Rodella - Passo Pordoi",
    "ref": "",
    "latitude": 46.4785525,
    "longitude": 11.8123172
  },
  {
    "slopeId": 193,
    "osmId": "32559144",
    "name": "",
    "difficulty": "intermediate",
    "resort": "Belvedere - Col Rodella - Passo Pordoi",
    "ref": "",
    "latitude": 46.4822889,
    "longitude": 11.8011496
  },
  {
    "slopeId": 194,
    "osmId": "32559639",
    "name": "Pian Frataces",
    "difficulty": "intermediate",
    "resort": "Belvedere - Col Rodella - Passo Pordoi",
    "ref": "6",
    "latitude": 46.4920455,
    "longitude": 11.7845051
  },
  {
    "slopeId": 195,
    "osmId": "32559644",
    "name": "Pian Frataces",
    "difficulty": "intermediate",
    "resort": "Belvedere - Col Rodella - Passo Pordoi",
    "ref": "6",
    "latitude": 46.4885775,
    "longitude": 11.7892295
  },
  {
    "slopeId": 196,
    "osmId": "32559645",
    "name": "Pian Frataces",
    "difficulty": "intermediate",
    "resort": "Belvedere - Col Rodella - Passo Pordoi",
    "ref": "6",
    "latitude": 46.4860975,
    "longitude": 11.7910534
  },
  {
    "slopeId": 197,
    "osmId": "32962920",
    "name": "Hintereis 1",
    "difficulty": "intermediate",
    "resort": "Val Senales-Schnalstal",
    "ref": "",
    "latitude": 46.7880311,
    "longitude": 10.7946808
  },
  {
    "slopeId": 198,
    "osmId": "33682620",
    "name": "Muteggpiste - Pista Monte Muta",
    "difficulty": "advanced",
    "resort": "Schwemmalm",
    "ref": "8",
    "latitude": 46.5355979,
    "longitude": 10.9110518
  },
  {
    "slopeId": 199,
    "osmId": "33684004",
    "name": "",
    "difficulty": "easy",
    "resort": "Schwemmalm",
    "ref": "",
    "latitude": 46.540007,
    "longitude": 10.90491
  },
  {
    "slopeId": 200,
    "osmId": "33684005",
    "name": "",
    "difficulty": "easy",
    "resort": "Schwemmalm",
    "ref": "",
    "latitude": 46.5385661,
    "longitude": 10.906013
  },
  {
    "slopeId": 201,
    "osmId": "33684006",
    "name": "",
    "difficulty": "intermediate",
    "resort": "Schwemmalm",
    "ref": "",
    "latitude": 46.538596,
    "longitude": 10.9073798
  },
  {
    "slopeId": 202,
    "osmId": "33684007",
    "name": "",
    "difficulty": "easy",
    "resort": "Schwemmalm",
    "ref": "",
    "latitude": 46.5372727,
    "longitude": 10.9097768
  },
  {
    "slopeId": 203,
    "osmId": "33684008",
    "name": "Asmol",
    "difficulty": "intermediate",
    "resort": "Schwemmalm",
    "ref": "6",
    "latitude": 46.5391983,
    "longitude": 10.9150649
  },
  {
    "slopeId": 204,
    "osmId": "33684010",
    "name": "",
    "difficulty": "easy",
    "resort": "Schwemmalm",
    "ref": "",
    "latitude": 46.5401576,
    "longitude": 10.922132
  },
  {
    "slopeId": 205,
    "osmId": "33684011",
    "name": "",
    "difficulty": "easy",
    "resort": "Schwemmalm",
    "ref": "",
    "latitude": 46.5380258,
    "longitude": 10.9228387
  },
  {
    "slopeId": 206,
    "osmId": "33684012",
    "name": "Kircheler",
    "difficulty": "intermediate",
    "resort": "Schwemmalm",
    "ref": "4",
    "latitude": 46.5413714,
    "longitude": 10.9283005
  },
  {
    "slopeId": 207,
    "osmId": "33684014",
    "name": "Dreimandler",
    "difficulty": "intermediate",
    "resort": "Schwemmalm",
    "ref": "7",
    "latitude": 46.536297,
    "longitude": 10.9218628
  },
  {
    "slopeId": 208,
    "osmId": "33684015",
    "name": "",
    "difficulty": "easy",
    "resort": "Schwemmalm",
    "ref": "",
    "latitude": 46.53164,
    "longitude": 10.9155722
  },
  {
    "slopeId": 209,
    "osmId": "33684019",
    "name": "Schwemmalm - Malga Guazza",
    "difficulty": "intermediate",
    "resort": "Schwemmalm",
    "ref": "3",
    "latitude": 46.5388502,
    "longitude": 10.9286315
  },
  {
    "slopeId": 210,
    "osmId": "33684020",
    "name": "",
    "difficulty": "easy",
    "resort": "Schwemmalm",
    "ref": "",
    "latitude": 46.5402657,
    "longitude": 10.9324433
  },
  {
    "slopeId": 211,
    "osmId": "33684021",
    "name": "",
    "difficulty": "easy",
    "resort": "Schwemmalm",
    "ref": "",
    "latitude": 46.5422162,
    "longitude": 10.9312451
  },
  {
    "slopeId": 212,
    "osmId": "33684022",
    "name": "Talabfahrt - Discesa",
    "difficulty": "intermediate",
    "resort": "Schwemmalm",
    "ref": "1",
    "latitude": 46.5433242,
    "longitude": 10.9381231
  },
  {
    "slopeId": 213,
    "osmId": "34167339",
    "name": "",
    "difficulty": "intermediate",
    "resort": "Petersberg - Monte San Pietro",
    "ref": "",
    "latitude": 46.392399,
    "longitude": 11.2076764
  },
  {
    "slopeId": 214,
    "osmId": "34634971",
    "name": "",
    "difficulty": "intermediate",
    "resort": "Residenza",
    "ref": "",
    "latitude": 46.3472269,
    "longitude": 11.5569717
  },
  {
    "slopeId": 215,
    "osmId": "34714189",
    "name": "Zwölferkopf II",
    "difficulty": "advanced",
    "resort": "Schöneben - Belpiano",
    "ref": "9",
    "latitude": 46.7963705,
    "longitude": 10.4780667
  },
  {
    "slopeId": 216,
    "osmId": "34714191",
    "name": "Hütteltal",
    "difficulty": "advanced",
    "resort": "Schöneben - Belpiano",
    "ref": "7",
    "latitude": 46.7975708,
    "longitude": 10.4835912
  },
  {
    "slopeId": 217,
    "osmId": "34714192",
    "name": "Rojenabfahrt",
    "difficulty": "advanced",
    "resort": "Schöneben - Belpiano",
    "ref": "6",
    "latitude": 46.8000337,
    "longitude": 10.4811569
  },
  {
    "slopeId": 218,
    "osmId": "34714193",
    "name": "Zehnerabfahrt",
    "difficulty": "intermediate",
    "resort": "Schöneben - Belpiano",
    "ref": "5",
    "latitude": 46.7997688,
    "longitude": 10.4898885
  },
  {
    "slopeId": 219,
    "osmId": "34714194",
    "name": "Aussichtsabfahrt",
    "difficulty": "easy",
    "resort": "Schöneben - Belpiano",
    "ref": "4",
    "latitude": 46.7998491,
    "longitude": 10.4900426
  },
  {
    "slopeId": 220,
    "osmId": "34714195",
    "name": "Jochabfahrt",
    "difficulty": "easy",
    "resort": "Schöneben - Belpiano",
    "ref": "3",
    "latitude": 46.802449,
    "longitude": 10.4938408
  },
  {
    "slopeId": 221,
    "osmId": "34714196",
    "name": "2: Jochabfahrt;Abzweig 1:Talabfahrt Schöneben",
    "difficulty": "easy",
    "resort": "Schöneben - Belpiano",
    "ref": "2",
    "latitude": 46.8046969,
    "longitude": 10.4927647
  },
  {
    "slopeId": 222,
    "osmId": "34714198",
    "name": "Jochabfahrt",
    "difficulty": "easy",
    "resort": "Schöneben - Belpiano",
    "ref": "3",
    "latitude": 46.7966422,
    "longitude": 10.4925938
  },
  {
    "slopeId": 223,
    "osmId": "34714199",
    "name": "Jochabfahrt",
    "difficulty": "easy",
    "resort": "Schöneben - Belpiano",
    "ref": "3",
    "latitude": 46.7950716,
    "longitude": 10.4913211
  },
  {
    "slopeId": 224,
    "osmId": "34714200",
    "name": "Zehnerabfahrt",
    "difficulty": "intermediate",
    "resort": "Schöneben - Belpiano",
    "ref": "5",
    "latitude": 46.7961493,
    "longitude": 10.4901067
  },
  {
    "slopeId": 225,
    "osmId": "34714202",
    "name": "Talabfahrt Schöneben",
    "difficulty": "intermediate",
    "resort": "Schöneben - Belpiano",
    "ref": "1",
    "latitude": 46.814173,
    "longitude": 10.5020384
  },
  {
    "slopeId": 226,
    "osmId": "34749190",
    "name": "Schönebenabfahrt",
    "difficulty": "easy",
    "resort": "Schöneben - Belpiano",
    "ref": "2",
    "latitude": 46.8012249,
    "longitude": 10.4939963
  },
  {
    "slopeId": 227,
    "osmId": "41141088",
    "name": "",
    "difficulty": "intermediate",
    "resort": "20 Pala di Santa",
    "ref": "",
    "latitude": 46.3487408,
    "longitude": 11.5323024
  },
  {
    "slopeId": 228,
    "osmId": "41659076",
    "name": "",
    "difficulty": "easy",
    "resort": "Schwemmalm",
    "ref": "",
    "latitude": 46.532906,
    "longitude": 10.9205286
  },
  {
    "slopeId": 229,
    "osmId": "41762666",
    "name": "",
    "difficulty": "intermediate",
    "resort": "Val Senales-Schnalstal",
    "ref": "",
    "latitude": 46.7849212,
    "longitude": 10.7930485
  },
  {
    "slopeId": 230,
    "osmId": "41990865",
    "name": "Costabella Variante",
    "difficulty": "easy",
    "resort": "Sport Schenk",
    "ref": "",
    "latitude": 46.5533861,
    "longitude": 11.7696928
  },
  {
    "slopeId": 231,
    "osmId": "41990868",
    "name": "Terza Punta",
    "difficulty": "intermediate",
    "resort": "Sport Schenk",
    "ref": "",
    "latitude": 46.5514165,
    "longitude": 11.7604369
  },
  {
    "slopeId": 232,
    "osmId": "42217193",
    "name": "Boè",
    "difficulty": "intermediate",
    "resort": "Sellaronda",
    "ref": "1",
    "latitude": 46.5266444,
    "longitude": 11.8662865
  },
  {
    "slopeId": 233,
    "osmId": "42283595",
    "name": "",
    "difficulty": "easy",
    "resort": "Alta Badia Shop & Rental",
    "ref": "",
    "latitude": 46.5800618,
    "longitude": 11.9012427
  },
  {
    "slopeId": 234,
    "osmId": "42324841",
    "name": "Sponata",
    "difficulty": "intermediate",
    "resort": "Alta Badia Shop & Rental",
    "ref": "24",
    "latitude": 46.5960864,
    "longitude": 11.8958727
  },
  {
    "slopeId": 235,
    "osmId": "42438172",
    "name": "Mastellina",
    "difficulty": "easy",
    "resort": "Busa del Vigo",
    "ref": "16",
    "latitude": 46.2804252,
    "longitude": 10.8314814
  },
  {
    "slopeId": 236,
    "osmId": "42439059",
    "name": "Sef",
    "difficulty": "easy",
    "resort": "Val Gardena",
    "ref": "",
    "latitude": 46.5287004,
    "longitude": 11.7479767
  },
  {
    "slopeId": 237,
    "osmId": "42447772",
    "name": "(61) Corna Rossa",
    "difficulty": "intermediate",
    "resort": "Campiglio Dolomiti di Brenta",
    "ref": "61",
    "latitude": 46.2139426,
    "longitude": 10.8960862
  },
  {
    "slopeId": 238,
    "osmId": "42689116",
    "name": "Belvedere",
    "difficulty": "easy",
    "resort": "Folgarida-Marilleva",
    "ref": "3",
    "latitude": 46.2929313,
    "longitude": 10.8626594
  },
  {
    "slopeId": 239,
    "osmId": "42689120",
    "name": "Orso Bruno",
    "difficulty": "easy",
    "resort": "Orso Bruno",
    "ref": "11",
    "latitude": 46.2804038,
    "longitude": 10.823509
  },
  {
    "slopeId": 240,
    "osmId": "42689123",
    "name": "Spolverino",
    "difficulty": "intermediate",
    "resort": "Folgarida-Marilleva",
    "ref": "4",
    "latitude": 46.28839,
    "longitude": 10.8409314
  },
  {
    "slopeId": 241,
    "osmId": "42689124",
    "name": "Provetti",
    "difficulty": "advanced",
    "resort": "Folgarida-Marilleva",
    "ref": "5",
    "latitude": 46.2878553,
    "longitude": 10.8432124
  },
  {
    "slopeId": 242,
    "osmId": "42690042",
    "name": "(48) Fiocco di neve",
    "difficulty": "intermediate",
    "resort": "Malghette",
    "ref": "48",
    "latitude": 46.2540239,
    "longitude": 10.8208109
  },
  {
    "slopeId": 243,
    "osmId": "42690313",
    "name": "Sass Becè",
    "difficulty": "intermediate",
    "resort": "Belvedere - Col Rodella - Passo Pordoi",
    "ref": "1",
    "latitude": 46.4805724,
    "longitude": 11.8081755
  },
  {
    "slopeId": 244,
    "osmId": "42690956",
    "name": "Armentarola",
    "difficulty": "intermediate",
    "resort": "Lagazuoi - 5 Torri",
    "ref": "1",
    "latitude": 46.5445651,
    "longitude": 11.989104
  },
  {
    "slopeId": 245,
    "osmId": "42733862",
    "name": "(9) Delle Rocce",
    "difficulty": "easy",
    "resort": "Busa del Vigo",
    "ref": "9",
    "latitude": 46.2776434,
    "longitude": 10.8301595
  },
  {
    "slopeId": 246,
    "osmId": "44151603",
    "name": "(57) Amazzonia",
    "difficulty": "advanced",
    "resort": "Malghette",
    "ref": "57",
    "latitude": 46.2482723,
    "longitude": 10.8196084
  },
  {
    "slopeId": 247,
    "osmId": "44283169",
    "name": "Sole",
    "difficulty": "easy",
    "resort": "Sport Schenk",
    "ref": "",
    "latitude": 46.522768,
    "longitude": 11.7689277
  },
  {
    "slopeId": 248,
    "osmId": "44283171",
    "name": "Piz Secteur - Comici",
    "difficulty": "intermediate",
    "resort": "Sport Schenk",
    "ref": "",
    "latitude": 46.5261235,
    "longitude": 11.7606953
  },
  {
    "slopeId": 249,
    "osmId": "44283176",
    "name": "",
    "difficulty": "easy",
    "resort": "Sport Schenk",
    "ref": "",
    "latitude": 46.5270029,
    "longitude": 11.772525
  },
  {
    "slopeId": 250,
    "osmId": "45791958",
    "name": "(71) Boch",
    "difficulty": "easy",
    "resort": "Campiglio Dolomiti di Brenta",
    "ref": "71",
    "latitude": 46.2241232,
    "longitude": 10.856006
  },
  {
    "slopeId": 251,
    "osmId": "46775212",
    "name": "Campo Freina",
    "difficulty": "intermediate",
    "resort": "Sport Schenk",
    "ref": "",
    "latitude": 46.5503358,
    "longitude": 11.7594714
  },
  {
    "slopeId": 252,
    "osmId": "47296787",
    "name": "(54) Malga Zeledria - Fortini",
    "difficulty": "easy",
    "resort": "Campiglio Dolomiti di Brenta",
    "ref": "54",
    "latitude": 46.2419774,
    "longitude": 10.8343855
  },
  {
    "slopeId": 253,
    "osmId": "47296788",
    "name": "(49) Zeledria",
    "difficulty": "easy",
    "resort": "Malghette",
    "ref": "49",
    "latitude": 46.2519895,
    "longitude": 10.8198441
  },
  {
    "slopeId": 254,
    "osmId": "47375296",
    "name": "Belvedere",
    "difficulty": "easy",
    "resort": "Kronplatz - Plan de Corones",
    "ref": "",
    "latitude": 46.7377519,
    "longitude": 11.9661883
  },
  {
    "slopeId": 255,
    "osmId": "47403565",
    "name": "(85) 5 Laghi",
    "difficulty": "easy",
    "resort": "Campiglio Dolomiti di Brenta",
    "ref": "85",
    "latitude": 46.2333736,
    "longitude": 10.8173515
  },
  {
    "slopeId": 256,
    "osmId": "47403567",
    "name": "(91) Miramonti",
    "difficulty": "advanced",
    "resort": "Campiglio Dolomiti di Brenta",
    "ref": "91",
    "latitude": 46.2319571,
    "longitude": 10.8217828
  },
  {
    "slopeId": 257,
    "osmId": "47403735",
    "name": "(85) 5 Laghi",
    "difficulty": "easy",
    "resort": "Campiglio Dolomiti di Brenta",
    "ref": "85",
    "latitude": 46.2274338,
    "longitude": 10.8082544
  },
  {
    "slopeId": 258,
    "osmId": "47404694",
    "name": "(57) Amazzonia",
    "difficulty": "advanced",
    "resort": "Malghette",
    "ref": "57",
    "latitude": 46.2472993,
    "longitude": 10.816403
  },
  {
    "slopeId": 259,
    "osmId": "47405177",
    "name": "(85) Skiweg Campiglio",
    "difficulty": "easy",
    "resort": "Campiglio Dolomiti di Brenta",
    "ref": "85",
    "latitude": 46.2330865,
    "longitude": 10.822182
  },
  {
    "slopeId": 260,
    "osmId": "47405274",
    "name": "(73) Spinale diretta",
    "difficulty": "intermediate",
    "resort": "Campiglio Dolomiti di Brenta",
    "ref": "73",
    "latitude": 46.2243213,
    "longitude": 10.8518389
  },
  {
    "slopeId": 261,
    "osmId": "47405288",
    "name": "(71) Boch",
    "difficulty": "easy",
    "resort": "Campiglio Dolomiti di Brenta",
    "ref": "71",
    "latitude": 46.2237174,
    "longitude": 10.8538141
  },
  {
    "slopeId": 262,
    "osmId": "47405293",
    "name": "(80) Gendarme",
    "difficulty": "easy",
    "resort": "Campiglio Dolomiti di Brenta",
    "ref": "80",
    "latitude": 46.2324207,
    "longitude": 10.8490062
  },
  {
    "slopeId": 263,
    "osmId": "47745340",
    "name": "",
    "difficulty": "easy",
    "resort": "Kronplatz - Plan de Corones",
    "ref": "",
    "latitude": 46.7381877,
    "longitude": 11.9587381
  },
  {
    "slopeId": 264,
    "osmId": "47747545",
    "name": "Corn",
    "difficulty": "easy",
    "resort": "Antermoia",
    "ref": "38",
    "latitude": 46.6973708,
    "longitude": 11.9258446
  },
  {
    "slopeId": 265,
    "osmId": "48466458",
    "name": "01 Trametsch",
    "difficulty": "advanced",
    "resort": "Brixen Plose - Plose di Bressanone",
    "ref": "",
    "latitude": 46.6925546,
    "longitude": 11.6984958
  },
  {
    "slopeId": 266,
    "osmId": "48468601",
    "name": "Plose 3",
    "difficulty": "easy",
    "resort": "Brixen Plose - Plose di Bressanone",
    "ref": "",
    "latitude": 46.6929154,
    "longitude": 11.7287461
  },
  {
    "slopeId": 267,
    "osmId": "48468607",
    "name": "Trainingspiste - CAI",
    "difficulty": "advanced",
    "resort": "Brixen Plose - Plose di Bressanone",
    "ref": "",
    "latitude": 46.6920698,
    "longitude": 11.733367
  },
  {
    "slopeId": 268,
    "osmId": "48468609",
    "name": "Querfahrt - Attraversamento",
    "difficulty": "easy",
    "resort": "Brixen Plose - Plose di Bressanone",
    "ref": "",
    "latitude": 46.6899243,
    "longitude": 11.7292217
  },
  {
    "slopeId": 269,
    "osmId": "48468611",
    "name": "Schönboden - Giogo Bello",
    "difficulty": "easy",
    "resort": "Brixen Plose - Plose di Bressanone",
    "ref": "",
    "latitude": 46.6871382,
    "longitude": 11.7175921
  },
  {
    "slopeId": 270,
    "osmId": "48602744",
    "name": "Schönboden - Giogo Bello",
    "difficulty": "easy",
    "resort": "Brixen Plose - Plose di Bressanone",
    "ref": "",
    "latitude": 46.6907182,
    "longitude": 11.7249399
  },
  {
    "slopeId": 271,
    "osmId": "48648578",
    "name": "Rossalm",
    "difficulty": "easy",
    "resort": "Brixen Plose - Plose di Bressanone",
    "ref": "",
    "latitude": 46.6891098,
    "longitude": 11.7373838
  },
  {
    "slopeId": 272,
    "osmId": "48752533",
    "name": "Paprika",
    "difficulty": "advanced",
    "resort": "Sport Schenk",
    "ref": "",
    "latitude": 46.5302359,
    "longitude": 11.7554203
  },
  {
    "slopeId": 273,
    "osmId": "48800393",
    "name": "Piz Sorega B - Armentarola",
    "difficulty": "easy",
    "resort": "Dolomiti Superski",
    "ref": "9B",
    "latitude": 46.5432511,
    "longitude": 11.9256054
  },
  {
    "slopeId": 274,
    "osmId": "48832840",
    "name": "Padon",
    "difficulty": "intermediate",
    "resort": "Marmolada",
    "ref": "50",
    "latitude": 46.458004,
    "longitude": 11.8907673
  },
  {
    "slopeId": 275,
    "osmId": "48857429",
    "name": "Armentarola",
    "difficulty": "easy",
    "resort": "Dolomiti Superski",
    "ref": "",
    "latitude": 46.5581583,
    "longitude": 11.9499122
  },
  {
    "slopeId": 276,
    "osmId": "48920076",
    "name": "",
    "difficulty": "easy",
    "resort": "Brixen Plose - Plose di Bressanone",
    "ref": "",
    "latitude": 46.6888882,
    "longitude": 11.7334686
  },
  {
    "slopeId": 277,
    "osmId": "48966877",
    "name": "Larciunei",
    "difficulty": "easy",
    "resort": "Sport Schenk",
    "ref": "",
    "latitude": 46.5571282,
    "longitude": 11.7653877
  },
  {
    "slopeId": 278,
    "osmId": "48966880",
    "name": "Dantercepies - Selva",
    "difficulty": "easy",
    "resort": "Sport Schenk",
    "ref": "",
    "latitude": 46.5561919,
    "longitude": 11.7671947
  },
  {
    "slopeId": 279,
    "osmId": "49067234",
    "name": "Sole",
    "difficulty": "easy",
    "resort": "Sport Schenk",
    "ref": "",
    "latitude": 46.5242295,
    "longitude": 11.7657583
  },
  {
    "slopeId": 280,
    "osmId": "49067235",
    "name": "Gran Paradiso - Piz Seteur",
    "difficulty": "intermediate",
    "resort": "Sport Schenk",
    "ref": "",
    "latitude": 46.5254243,
    "longitude": 11.7602626
  },
  {
    "slopeId": 281,
    "osmId": "49067236",
    "name": "Plan de Gralba",
    "difficulty": "easy",
    "resort": "Sport Schenk",
    "ref": "",
    "latitude": 46.5327244,
    "longitude": 11.7669355
  },
  {
    "slopeId": 282,
    "osmId": "49068271",
    "name": "",
    "difficulty": "intermediate",
    "resort": "Belvedere - Col Rodella - Passo Pordoi",
    "ref": "",
    "latitude": 46.5024213,
    "longitude": 11.7523304
  },
  {
    "slopeId": 283,
    "osmId": "49068272",
    "name": "Salei",
    "difficulty": "intermediate",
    "resort": "Belvedere - Col Rodella - Passo Pordoi",
    "ref": "14",
    "latitude": 46.5043372,
    "longitude": 11.7491388
  },
  {
    "slopeId": 284,
    "osmId": "49068273",
    "name": "",
    "difficulty": "intermediate",
    "resort": "Belvedere - Col Rodella - Passo Pordoi",
    "ref": "",
    "latitude": 46.5017491,
    "longitude": 11.7577657
  },
  {
    "slopeId": 285,
    "osmId": "49068397",
    "name": "",
    "difficulty": "intermediate",
    "resort": "Belvedere - Col Rodella - Passo Pordoi",
    "ref": "",
    "latitude": 46.5032411,
    "longitude": 11.7527999
  },
  {
    "slopeId": 286,
    "osmId": "49357312",
    "name": "Orsa Maggiore",
    "difficulty": "intermediate",
    "resort": "Buffaure - Ciampac",
    "ref": "",
    "latitude": 46.4380989,
    "longitude": 11.7466969
  },
  {
    "slopeId": 287,
    "osmId": "49436046",
    "name": "",
    "difficulty": "easy",
    "resort": "Alta Badia Shop & Rental",
    "ref": "",
    "latitude": 46.5990833,
    "longitude": 11.9005077
  },
  {
    "slopeId": 288,
    "osmId": "49436056",
    "name": "",
    "difficulty": "easy",
    "resort": "Dolomiti Superski",
    "ref": "",
    "latitude": 46.560082,
    "longitude": 11.9537316
  },
  {
    "slopeId": 289,
    "osmId": "49898528",
    "name": "Madritsch",
    "difficulty": "advanced",
    "resort": "Sulden am Ortler - Solda al Ortles",
    "ref": "",
    "latitude": 46.506079,
    "longitude": 10.5960382
  },
  {
    "slopeId": 290,
    "osmId": "50061558",
    "name": "Palmschoss - Plancios",
    "difficulty": "intermediate",
    "resort": "Brixen Plose - Plose di Bressanone",
    "ref": "",
    "latitude": 46.6800757,
    "longitude": 11.7132027
  },
  {
    "slopeId": 291,
    "osmId": "50061561",
    "name": "",
    "difficulty": "easy",
    "resort": "Brixen Plose - Plose di Bressanone",
    "ref": "",
    "latitude": 46.6833773,
    "longitude": 11.7112779
  },
  {
    "slopeId": 292,
    "osmId": "50315670",
    "name": "Trametschzufahrt",
    "difficulty": "advanced",
    "resort": "Brixen Plose - Plose di Bressanone",
    "ref": "",
    "latitude": 46.6868123,
    "longitude": 11.7107273
  },
  {
    "slopeId": 293,
    "osmId": "50364566",
    "name": "Pra Grant",
    "difficulty": "intermediate",
    "resort": "Folgaria",
    "ref": "11",
    "latitude": 45.890051,
    "longitude": 11.1599733
  },
  {
    "slopeId": 294,
    "osmId": "50364568",
    "name": "Slalom Toll",
    "difficulty": "intermediate",
    "resort": "Folgaria",
    "ref": "13",
    "latitude": 45.8912691,
    "longitude": 11.1615049
  },
  {
    "slopeId": 295,
    "osmId": "50364579",
    "name": "Pra Grant",
    "difficulty": "intermediate",
    "resort": "Folgaria",
    "ref": "11",
    "latitude": 45.8887948,
    "longitude": 11.1700952
  },
  {
    "slopeId": 296,
    "osmId": "50649704",
    "name": "Klaussee II (K2)",
    "difficulty": "intermediate",
    "resort": "Klausberg - Monte Chiusetta",
    "ref": "8",
    "latitude": 46.9675539,
    "longitude": 11.9978719
  },
  {
    "slopeId": 297,
    "osmId": "50649705",
    "name": "Sattelhorn (K2)",
    "difficulty": "advanced",
    "resort": "Klausberg - Monte Chiusetta",
    "ref": "8d",
    "latitude": 46.969314,
    "longitude": 11.9924689
  },
  {
    "slopeId": 298,
    "osmId": "50823788",
    "name": "Cima Spill",
    "difficulty": "intermediate",
    "resort": "Centro Fondo Passo Coe",
    "ref": "15",
    "latitude": 45.8802493,
    "longitude": 11.195094
  },
  {
    "slopeId": 299,
    "osmId": "50823790",
    "name": "",
    "difficulty": "easy",
    "resort": "Centro Fondo Passo Coe",
    "ref": "",
    "latitude": 45.8764279,
    "longitude": 11.207446
  },
  {
    "slopeId": 300,
    "osmId": "50823791",
    "name": "Cargaore",
    "difficulty": "easy",
    "resort": "Centro Fondo Passo Coe",
    "ref": "17",
    "latitude": 45.8772511,
    "longitude": 11.2042138
  },
  {
    "slopeId": 301,
    "osmId": "50823793",
    "name": "Collegamento Fondo Piccolo-Fondo Grande",
    "difficulty": "easy",
    "resort": "Folgaria",
    "ref": "14b",
    "latitude": 45.8870999,
    "longitude": 11.1934324
  },
  {
    "slopeId": 302,
    "osmId": "50824057",
    "name": "Salizzona",
    "difficulty": "intermediate",
    "resort": "Folgaria",
    "ref": "8",
    "latitude": 45.8895696,
    "longitude": 11.1958635
  },
  {
    "slopeId": 303,
    "osmId": "50841053",
    "name": "Casina",
    "difficulty": "easy",
    "resort": "Folgarida-Marilleva",
    "ref": "15",
    "latitude": 46.294697,
    "longitude": 10.8618462
  },
  {
    "slopeId": 304,
    "osmId": "50843266",
    "name": "Nera Folgarida",
    "difficulty": "advanced",
    "resort": "Folgarida-Marilleva",
    "ref": "1",
    "latitude": 46.2965147,
    "longitude": 10.8571136
  },
  {
    "slopeId": 305,
    "osmId": "50843268",
    "name": "Malghet Aut 1",
    "difficulty": "easy",
    "resort": "Folgarida-Marilleva",
    "ref": "",
    "latitude": 46.2896944,
    "longitude": 10.8454948
  },
  {
    "slopeId": 306,
    "osmId": "50843269",
    "name": "Malghet Aut 2",
    "difficulty": "easy",
    "resort": "Folgarida-Marilleva",
    "ref": "",
    "latitude": 46.2893771,
    "longitude": 10.8454961
  },
  {
    "slopeId": 307,
    "osmId": "50843270",
    "name": "",
    "difficulty": "easy",
    "resort": "Folgarida-Marilleva",
    "ref": "",
    "latitude": 46.2913439,
    "longitude": 10.8533071
  },
  {
    "slopeId": 308,
    "osmId": "50844351",
    "name": "Mastellissima",
    "difficulty": "intermediate",
    "resort": "Folgarida-Marilleva",
    "ref": "32",
    "latitude": 46.2929528,
    "longitude": 10.8355551
  },
  {
    "slopeId": 309,
    "osmId": "50844352",
    "name": "Brenzi",
    "difficulty": "intermediate",
    "resort": "Folgarida-Marilleva",
    "ref": "8",
    "latitude": 46.2861838,
    "longitude": 10.8422331
  },
  {
    "slopeId": 310,
    "osmId": "50844773",
    "name": "Busa del Vigo",
    "difficulty": "intermediate",
    "resort": "Busa del Vigo",
    "ref": "12",
    "latitude": 46.2768585,
    "longitude": 10.8318141
  },
  {
    "slopeId": 311,
    "osmId": "50844775",
    "name": "Panoramica",
    "difficulty": "easy",
    "resort": "Busa del Vigo",
    "ref": "7",
    "latitude": 46.2823082,
    "longitude": 10.8350175
  },
  {
    "slopeId": 312,
    "osmId": "50844776",
    "name": "Busa del Vigo",
    "difficulty": "intermediate",
    "resort": "Busa del Vigo",
    "ref": "7",
    "latitude": 46.2791476,
    "longitude": 10.8371475
  },
  {
    "slopeId": 313,
    "osmId": "50845485",
    "name": "Malghette",
    "difficulty": "intermediate",
    "resort": "Malghette",
    "ref": "10",
    "latitude": 46.2691002,
    "longitude": 10.8307154
  },
  {
    "slopeId": 314,
    "osmId": "50847861",
    "name": "Azzurra",
    "difficulty": "easy",
    "resort": "Folgarida-Marilleva",
    "ref": "2",
    "latitude": 46.2941967,
    "longitude": 10.8567342
  },
  {
    "slopeId": 315,
    "osmId": "50847863",
    "name": "",
    "difficulty": "easy",
    "resort": "Folgarida-Marilleva",
    "ref": "",
    "latitude": 46.2887935,
    "longitude": 10.8469652
  },
  {
    "slopeId": 316,
    "osmId": "51046044",
    "name": "",
    "difficulty": "intermediate",
    "resort": "Rein in Taufers - Riva di Tures",
    "ref": "",
    "latitude": 46.9526013,
    "longitude": 12.0631335
  },
  {
    "slopeId": 317,
    "osmId": "51046046",
    "name": "",
    "difficulty": "intermediate",
    "resort": "Rein in Taufers - Riva di Tures",
    "ref": "",
    "latitude": 46.9523145,
    "longitude": 12.0633185
  },
  {
    "slopeId": 318,
    "osmId": "51046048",
    "name": "",
    "difficulty": "easy",
    "resort": "Rein in Taufers - Riva di Tures",
    "ref": "",
    "latitude": 46.9513216,
    "longitude": 12.0621818
  },
  {
    "slopeId": 319,
    "osmId": "51046050",
    "name": "",
    "difficulty": "easy",
    "resort": "Rein in Taufers - Riva di Tures",
    "ref": "",
    "latitude": 46.9501553,
    "longitude": 12.0595109
  },
  {
    "slopeId": 320,
    "osmId": "51046052",
    "name": "",
    "difficulty": "intermediate",
    "resort": "Rein in Taufers - Riva di Tures",
    "ref": "",
    "latitude": 46.9496811,
    "longitude": 12.059748
  },
  {
    "slopeId": 321,
    "osmId": "51046819",
    "name": "",
    "difficulty": "easy",
    "resort": "Rein in Taufers - Riva di Tures",
    "ref": "",
    "latitude": 46.9507077,
    "longitude": 12.0599381
  },
  {
    "slopeId": 322,
    "osmId": "51048441",
    "name": "Hexenschuss (K1)",
    "difficulty": "advanced",
    "resort": "Klausberg - Monte Chiusetta",
    "ref": "2a",
    "latitude": 46.9738643,
    "longitude": 11.9881082
  },
  {
    "slopeId": 323,
    "osmId": "51048444",
    "name": "Sonnen 2",
    "difficulty": "advanced",
    "resort": "Klausberg - Monte Chiusetta",
    "ref": "3f",
    "latitude": 46.9879275,
    "longitude": 11.9852978
  },
  {
    "slopeId": 324,
    "osmId": "51182018",
    "name": "",
    "difficulty": "easy",
    "resort": "Laner",
    "ref": "",
    "latitude": 46.3723962,
    "longitude": 11.5324763
  },
  {
    "slopeId": 325,
    "osmId": "51182019",
    "name": "Ochsenweide",
    "difficulty": "intermediate",
    "resort": "Obereggen",
    "ref": "3",
    "latitude": 46.3825378,
    "longitude": 11.5262158
  },
  {
    "slopeId": 326,
    "osmId": "51529759",
    "name": "",
    "difficulty": "easy",
    "resort": "Schwemmalm",
    "ref": "",
    "latitude": 46.5362322,
    "longitude": 10.9244452
  },
  {
    "slopeId": 327,
    "osmId": "51553591",
    "name": "Laner",
    "difficulty": "easy",
    "resort": "Laner",
    "ref": "4",
    "latitude": 46.3697868,
    "longitude": 11.532236
  },
  {
    "slopeId": 328,
    "osmId": "51553592",
    "name": "Obereggen",
    "difficulty": "intermediate",
    "resort": "Ochsenweide",
    "ref": "2a",
    "latitude": 46.3777795,
    "longitude": 11.5288956
  },
  {
    "slopeId": 329,
    "osmId": "51553595",
    "name": "",
    "difficulty": "easy",
    "resort": "Laner",
    "ref": "",
    "latitude": 46.3721024,
    "longitude": 11.5325151
  },
  {
    "slopeId": 330,
    "osmId": "51553597",
    "name": "Ochsenweide",
    "difficulty": "intermediate",
    "resort": "Ochsenweide",
    "ref": "3",
    "latitude": 46.3789682,
    "longitude": 11.5284283
  },
  {
    "slopeId": 331,
    "osmId": "51558959",
    "name": "Maierl",
    "difficulty": "intermediate",
    "resort": "Maierl",
    "ref": "5",
    "latitude": 46.3650609,
    "longitude": 11.5393854
  },
  {
    "slopeId": 332,
    "osmId": "51646818",
    "name": "",
    "difficulty": "easy",
    "resort": "7 Skiweg Reiterjoch",
    "ref": "",
    "latitude": 46.3619756,
    "longitude": 11.5340937
  },
  {
    "slopeId": 333,
    "osmId": "51646819",
    "name": "Absam",
    "difficulty": "intermediate",
    "resort": "Absam",
    "ref": "6",
    "latitude": 46.3627977,
    "longitude": 11.5395181
  },
  {
    "slopeId": 334,
    "osmId": "51646821",
    "name": "Toler",
    "difficulty": "easy",
    "resort": "Absam",
    "ref": "8",
    "latitude": 46.356091,
    "longitude": 11.5365013
  },
  {
    "slopeId": 335,
    "osmId": "51646823",
    "name": "Pala di Santa",
    "difficulty": "intermediate",
    "resort": "Absam",
    "ref": "20",
    "latitude": 46.3473642,
    "longitude": 11.5259808
  },
  {
    "slopeId": 336,
    "osmId": "51646824",
    "name": "10 Pampeago",
    "difficulty": "easy",
    "resort": "Absam",
    "ref": "",
    "latitude": 46.3497991,
    "longitude": 11.5419917
  },
  {
    "slopeId": 337,
    "osmId": "51646826",
    "name": "",
    "difficulty": "easy",
    "resort": "Latemar Dolomites",
    "ref": "",
    "latitude": 46.3507207,
    "longitude": 11.5474531
  },
  {
    "slopeId": 338,
    "osmId": "51646827",
    "name": "Campo Scuola Latemar",
    "difficulty": "easy",
    "resort": "Latemar Dolomites",
    "ref": "24",
    "latitude": 46.3481186,
    "longitude": 11.5463353
  },
  {
    "slopeId": 339,
    "osmId": "51646828",
    "name": "",
    "difficulty": "easy",
    "resort": "Latemar Dolomites",
    "ref": "25",
    "latitude": 46.3494236,
    "longitude": 11.5481147
  },
  {
    "slopeId": 340,
    "osmId": "51980340",
    "name": "Martinelli",
    "difficulty": "intermediate",
    "resort": "Belvedere - Col Rodella - Passo Pordoi",
    "ref": "",
    "latitude": 46.5055294,
    "longitude": 11.7472439
  },
  {
    "slopeId": 341,
    "osmId": "51996434",
    "name": "",
    "difficulty": "easy",
    "resort": "Dolomiti Superski",
    "ref": "28",
    "latitude": 46.5543028,
    "longitude": 11.9214048
  },
  {
    "slopeId": 342,
    "osmId": "51998108",
    "name": "Crep de Mont - Boè",
    "difficulty": "easy",
    "resort": "Sellaronda",
    "ref": "1A",
    "latitude": 46.5325038,
    "longitude": 11.8729238
  },
  {
    "slopeId": 343,
    "osmId": "52007132",
    "name": "",
    "difficulty": "easy",
    "resort": "Belvedere - Col Rodella - Passo Pordoi",
    "ref": "",
    "latitude": 46.4777943,
    "longitude": 11.8046989
  },
  {
    "slopeId": 344,
    "osmId": "52026492",
    "name": "Agnello Cengia",
    "difficulty": "intermediate",
    "resort": "Latemar Dolomites",
    "ref": "28",
    "latitude": 46.3388777,
    "longitude": 11.5487683
  },
  {
    "slopeId": 345,
    "osmId": "52026494",
    "name": "Variante Cinque Nazioni",
    "difficulty": "intermediate",
    "resort": "Latemar Dolomites",
    "ref": "36",
    "latitude": 46.3426499,
    "longitude": 11.5675596
  },
  {
    "slopeId": 346,
    "osmId": "52026495",
    "name": "",
    "difficulty": "intermediate",
    "resort": "Latemar Dolomites",
    "ref": "",
    "latitude": 46.3402974,
    "longitude": 11.5513389
  },
  {
    "slopeId": 347,
    "osmId": "52026499",
    "name": "",
    "difficulty": "easy",
    "resort": "Latemar Dolomites",
    "ref": "",
    "latitude": 46.3426254,
    "longitude": 11.5499445
  },
  {
    "slopeId": 348,
    "osmId": "52037873",
    "name": "",
    "difficulty": "easy",
    "resort": "Belvedere - Col Rodella - Passo Pordoi",
    "ref": "",
    "latitude": 46.4997622,
    "longitude": 11.7482133
  },
  {
    "slopeId": 349,
    "osmId": "52038151",
    "name": "Gabia",
    "difficulty": "easy",
    "resort": "Belvedere - Col Rodella - Passo Pordoi",
    "ref": "",
    "latitude": 46.5006353,
    "longitude": 11.7465232
  },
  {
    "slopeId": 350,
    "osmId": "52038524",
    "name": "3-Tre variante Agonistica",
    "difficulty": "intermediate",
    "resort": "Belvedere - Col Rodella - Passo Pordoi",
    "ref": "11",
    "latitude": 46.4938227,
    "longitude": 11.7724717
  },
  {
    "slopeId": 351,
    "osmId": "52082336",
    "name": "Seewiese 2",
    "difficulty": "intermediate",
    "resort": "Kronplatz - Plan de Corones",
    "ref": "2C",
    "latitude": 46.7514428,
    "longitude": 11.9553456
  },
  {
    "slopeId": 352,
    "osmId": "52082337",
    "name": "Herrnegg",
    "difficulty": "advanced",
    "resort": "Kronplatz - Plan de Corones",
    "ref": "",
    "latitude": 46.7538809,
    "longitude": 11.9518851
  },
  {
    "slopeId": 353,
    "osmId": "52083543",
    "name": "Costa",
    "difficulty": "easy",
    "resort": "Kronplatz - Plan de Corones",
    "ref": "",
    "latitude": 46.7265808,
    "longitude": 11.9677289
  },
  {
    "slopeId": 354,
    "osmId": "52083544",
    "name": "",
    "difficulty": "intermediate",
    "resort": "Kronplatz - Plan de Corones",
    "ref": "",
    "latitude": 46.71899,
    "longitude": 11.9633891
  },
  {
    "slopeId": 355,
    "osmId": "52083545",
    "name": "Rara",
    "difficulty": "intermediate",
    "resort": "Rara",
    "ref": "",
    "latitude": 46.7204015,
    "longitude": 11.9613952
  },
  {
    "slopeId": 356,
    "osmId": "52083546",
    "name": "Rara 31",
    "difficulty": "easy",
    "resort": "Kronplatz - Plan de Corones",
    "ref": "",
    "latitude": 46.7225038,
    "longitude": 11.9641617
  },
  {
    "slopeId": 357,
    "osmId": "52083547",
    "name": "Rara 33",
    "difficulty": "intermediate",
    "resort": "Rara",
    "ref": "",
    "latitude": 46.718994,
    "longitude": 11.9648768
  },
  {
    "slopeId": 358,
    "osmId": "52083647",
    "name": "Col Toron",
    "difficulty": "intermediate",
    "resort": "Kronplatz - Plan de Corones",
    "ref": "34",
    "latitude": 46.7112163,
    "longitude": 11.9510357
  },
  {
    "slopeId": 359,
    "osmId": "52083942",
    "name": "Erta",
    "difficulty": "advanced",
    "resort": "Antermoia",
    "ref": "40",
    "latitude": 46.6996499,
    "longitude": 11.9194604
  },
  {
    "slopeId": 360,
    "osmId": "52085632",
    "name": "Gardeccia",
    "difficulty": "intermediate",
    "resort": "Belvedere - Col Rodella - Passo Pordoi",
    "ref": "4",
    "latitude": 46.4768925,
    "longitude": 11.8034852
  },
  {
    "slopeId": 361,
    "osmId": "52330700",
    "name": "Catores",
    "difficulty": "advanced",
    "resort": "Val Gardena",
    "ref": "7",
    "latitude": 46.5963727,
    "longitude": 11.7264623
  },
  {
    "slopeId": 362,
    "osmId": "52331797",
    "name": "Panorama 14",
    "difficulty": "easy",
    "resort": "Seiser Alm - Mont de Sëuc - Alpe di Siusi",
    "ref": "14",
    "latitude": 46.537494,
    "longitude": 11.6239023
  },
  {
    "slopeId": 363,
    "osmId": "52331798",
    "name": "Steger - Panorama",
    "difficulty": "easy",
    "resort": "Seiser Alm - Mont de Sëuc - Alpe di Siusi",
    "ref": "58",
    "latitude": 46.5379894,
    "longitude": 11.6303249
  },
  {
    "slopeId": 364,
    "osmId": "52331799",
    "name": "Bamby - Steger Dellai",
    "difficulty": "intermediate",
    "resort": "Seiser Alm - Mont de Sëuc - Alpe di Siusi",
    "ref": "59",
    "latitude": 46.5368358,
    "longitude": 11.6354193
  },
  {
    "slopeId": 365,
    "osmId": "52331800",
    "name": "Panorama - Laurin",
    "difficulty": "intermediate",
    "resort": "Seiser Alm - Mont de Sëuc - Alpe di Siusi",
    "ref": "15",
    "latitude": 46.5324404,
    "longitude": 11.6196578
  },
  {
    "slopeId": 366,
    "osmId": "52331801",
    "name": "Laurin - Paradiso",
    "difficulty": "easy",
    "resort": "Seiser Alm - Mont de Sëuc - Alpe di Siusi",
    "ref": "10",
    "latitude": 46.5287625,
    "longitude": 11.629347
  },
  {
    "slopeId": 367,
    "osmId": "52331802",
    "name": "Monte Piz",
    "difficulty": "intermediate",
    "resort": "Seiser Alm - Mont de Sëuc - Alpe di Siusi",
    "ref": "55",
    "latitude": 46.547666,
    "longitude": 11.6422614
  },
  {
    "slopeId": 368,
    "osmId": "52331803",
    "name": "Puflatsch Alpin",
    "difficulty": "intermediate",
    "resort": "Seiser Alm - Mont de Sëuc - Alpe di Siusi",
    "ref": "76",
    "latitude": 46.5483763,
    "longitude": 11.6133714
  },
  {
    "slopeId": 369,
    "osmId": "52331804",
    "name": "Euro 69",
    "difficulty": "easy",
    "resort": "Seiser Alm - Mont de Sëuc - Alpe di Siusi",
    "ref": "69",
    "latitude": 46.5448,
    "longitude": 11.6191668
  },
  {
    "slopeId": 370,
    "osmId": "52331806",
    "name": "Puflatsch Freccia",
    "difficulty": "advanced",
    "resort": "Seiser Alm - Mont de Sëuc - Alpe di Siusi",
    "ref": "78",
    "latitude": 46.5471575,
    "longitude": 11.6148265
  },
  {
    "slopeId": 371,
    "osmId": "52331807",
    "name": "Mezdí - Sanon 1",
    "difficulty": "intermediate",
    "resort": "Seiser Alm - Mont de Sëuc - Alpe di Siusi",
    "ref": "43",
    "latitude": 46.5567231,
    "longitude": 11.6563478
  },
  {
    "slopeId": 372,
    "osmId": "52331808",
    "name": "Monte Piz - Icaro - Leo Demetz",
    "difficulty": "easy",
    "resort": "Seiser Alm - Mont de Sëuc - Alpe di Siusi",
    "ref": "46",
    "latitude": 46.5491883,
    "longitude": 11.6490462
  },
  {
    "slopeId": 373,
    "osmId": "52331809",
    "name": "Sanon 1",
    "difficulty": "intermediate",
    "resort": "Seiser Alm - Mont de Sëuc - Alpe di Siusi",
    "ref": "51",
    "latitude": 46.5478985,
    "longitude": 11.6531301
  },
  {
    "slopeId": 374,
    "osmId": "52331810",
    "name": "Leo Demetz",
    "difficulty": "intermediate",
    "resort": "Seiser Alm - Mont de Sëuc - Alpe di Siusi",
    "ref": "47",
    "latitude": 46.5526379,
    "longitude": 11.648198
  },
  {
    "slopeId": 375,
    "osmId": "52390077",
    "name": "Verbindung Wasserfalleralm-Enzian",
    "difficulty": "easy",
    "resort": "Verbindung Wasserfalleralm-Enzian",
    "ref": "",
    "latitude": 46.8461298,
    "longitude": 11.295605
  },
  {
    "slopeId": 376,
    "osmId": "52390078",
    "name": "",
    "difficulty": "intermediate",
    "resort": "Blosegg",
    "ref": "",
    "latitude": 46.8604388,
    "longitude": 11.3021681
  },
  {
    "slopeId": 377,
    "osmId": "52624809",
    "name": "Saxner I",
    "difficulty": "intermediate",
    "resort": "Saxner I",
    "ref": "",
    "latitude": 46.8449605,
    "longitude": 11.2902921
  },
  {
    "slopeId": 378,
    "osmId": "52624810",
    "name": "Saxner II",
    "difficulty": "intermediate",
    "resort": "Saxner II",
    "ref": "",
    "latitude": 46.8447194,
    "longitude": 11.2869404
  },
  {
    "slopeId": 379,
    "osmId": "52624813",
    "name": "Waldabfahrt",
    "difficulty": "intermediate",
    "resort": "Waldabfahrt",
    "ref": "",
    "latitude": 46.8553708,
    "longitude": 11.2985403
  },
  {
    "slopeId": 380,
    "osmId": "52985694",
    "name": "",
    "difficulty": "intermediate",
    "resort": "Val Senales-Schnalstal",
    "ref": "",
    "latitude": 46.7839608,
    "longitude": 10.7957864
  },
  {
    "slopeId": 381,
    "osmId": "52985695",
    "name": "",
    "difficulty": "easy",
    "resort": "Val Senales-Schnalstal",
    "ref": "",
    "latitude": 46.7815718,
    "longitude": 10.7987086
  },
  {
    "slopeId": 382,
    "osmId": "52985696",
    "name": "",
    "difficulty": "easy",
    "resort": "Val Senales-Schnalstal",
    "ref": "",
    "latitude": 46.7810601,
    "longitude": 10.7978471
  },
  {
    "slopeId": 383,
    "osmId": "53528189",
    "name": "Olimpia 3",
    "difficulty": "intermediate",
    "resort": "Alpe Cermis",
    "ref": "87",
    "latitude": 46.2648081,
    "longitude": 11.4816117
  },
  {
    "slopeId": 384,
    "osmId": "53672486",
    "name": "",
    "difficulty": "intermediate",
    "resort": "Pfelders Ski Resort",
    "ref": "",
    "latitude": 46.7920623,
    "longitude": 11.0961375
  },
  {
    "slopeId": 385,
    "osmId": "53672487",
    "name": "",
    "difficulty": "intermediate",
    "resort": "Pfelders Ski Resort",
    "ref": "",
    "latitude": 46.7906205,
    "longitude": 11.0975764
  },
  {
    "slopeId": 386,
    "osmId": "54237928",
    "name": "13 - Helm Vierschach - 13 - Elmo Versciaco",
    "difficulty": "intermediate",
    "resort": "Drei Zinnen - Tre Cime",
    "ref": "",
    "latitude": 46.7231309,
    "longitude": 12.3374558
  },
  {
    "slopeId": 387,
    "osmId": "54239025",
    "name": "Porzen",
    "difficulty": "intermediate",
    "resort": "Drei Zinnen - Tre Cime",
    "ref": "",
    "latitude": 46.6619224,
    "longitude": 12.3748893
  },
  {
    "slopeId": 388,
    "osmId": "54239044",
    "name": "10",
    "difficulty": "intermediate",
    "resort": "Signaue",
    "ref": "",
    "latitude": 46.6752083,
    "longitude": 12.377423
  },
  {
    "slopeId": 389,
    "osmId": "54239046",
    "name": "Bad Moos - Rotwand",
    "difficulty": "easy",
    "resort": "Drei Zinnen - Tre Cime",
    "ref": "",
    "latitude": 46.667239,
    "longitude": 12.3754754
  },
  {
    "slopeId": 390,
    "osmId": "54239048",
    "name": "Rotwandwiesen",
    "difficulty": "easy",
    "resort": "Rotwandwiesen",
    "ref": "4",
    "latitude": 46.6628548,
    "longitude": 12.3716541
  },
  {
    "slopeId": 391,
    "osmId": "54239051",
    "name": "",
    "difficulty": "easy",
    "resort": "Porzen variante",
    "ref": "",
    "latitude": 46.6622744,
    "longitude": 12.3736447
  },
  {
    "slopeId": 392,
    "osmId": "54360423",
    "name": "",
    "difficulty": "intermediate",
    "resort": "Drei Zinnen - Tre Cime",
    "ref": "",
    "latitude": 46.7122298,
    "longitude": 12.3712628
  },
  {
    "slopeId": 393,
    "osmId": "54360473",
    "name": "12 - Hahnspiel  -  12 - Gallo",
    "difficulty": "intermediate",
    "resort": "Drei Zinnen - Tre Cime",
    "ref": "",
    "latitude": 46.7141675,
    "longitude": 12.37169
  },
  {
    "slopeId": 394,
    "osmId": "54360661",
    "name": "Variante \"S\" Versciaco",
    "difficulty": "advanced",
    "resort": "Drei Zinnen - Tre Cime",
    "ref": "",
    "latitude": 46.715751,
    "longitude": 12.3541978
  },
  {
    "slopeId": 395,
    "osmId": "54457361",
    "name": "11a - Kristlerhang",
    "difficulty": "advanced",
    "resort": "Drei Zinnen - Tre Cime",
    "ref": "",
    "latitude": 46.6959916,
    "longitude": 12.3701176
  },
  {
    "slopeId": 396,
    "osmId": "54457362",
    "name": "11- Helm Sexten",
    "difficulty": "intermediate",
    "resort": "Drei Zinnen - Tre Cime",
    "ref": "",
    "latitude": 46.7071478,
    "longitude": 12.37158
  },
  {
    "slopeId": 397,
    "osmId": "54457366",
    "name": "Holzriese II",
    "difficulty": "advanced",
    "resort": "Holzriese II",
    "ref": "3b",
    "latitude": 46.6766702,
    "longitude": 12.3687666
  },
  {
    "slopeId": 398,
    "osmId": "54457368",
    "name": "",
    "difficulty": "easy",
    "resort": "Drei Zinnen - Tre Cime",
    "ref": "",
    "latitude": 46.6650569,
    "longitude": 12.372998
  },
  {
    "slopeId": 399,
    "osmId": "58178085",
    "name": "Rododendro",
    "difficulty": "easy",
    "resort": "San Martino di Castrozza",
    "ref": "",
    "latitude": 46.2431186,
    "longitude": 11.7727464
  },
  {
    "slopeId": 400,
    "osmId": "58178089",
    "name": "Cristiania",
    "difficulty": "intermediate",
    "resort": "Cristiania",
    "ref": "19",
    "latitude": 46.256559,
    "longitude": 11.7563851
  },
  {
    "slopeId": 401,
    "osmId": "58178094",
    "name": "Cima Tognola",
    "difficulty": "intermediate",
    "resort": "San Martino di Castrozza",
    "ref": "28",
    "latitude": 46.2478917,
    "longitude": 11.7621177
  },
  {
    "slopeId": 402,
    "osmId": "58178098",
    "name": "Tognola Uno",
    "difficulty": "advanced",
    "resort": "San Martino di Castrozza",
    "ref": "22",
    "latitude": 46.2526907,
    "longitude": 11.7937442
  },
  {
    "slopeId": 403,
    "osmId": "58178101",
    "name": "Strada forestale Fratazza",
    "difficulty": "easy",
    "resort": "San Martino di Castrozza",
    "ref": "",
    "latitude": 46.2561558,
    "longitude": 11.7917979
  },
  {
    "slopeId": 404,
    "osmId": "58178102",
    "name": "Colbricon",
    "difficulty": "intermediate",
    "resort": "San Martino di Castrozza - Passo Rolle",
    "ref": "",
    "latitude": 46.2709963,
    "longitude": 11.7618518
  },
  {
    "slopeId": 405,
    "osmId": "58178105",
    "name": "Malga Ces",
    "difficulty": "easy",
    "resort": "San Martino di Castrozza - Passo Rolle",
    "ref": "21",
    "latitude": 46.2711208,
    "longitude": 11.772899
  },
  {
    "slopeId": 406,
    "osmId": "58178113",
    "name": "",
    "difficulty": "intermediate",
    "resort": "Tognola Tre",
    "ref": "",
    "latitude": 46.2530042,
    "longitude": 11.7795386
  },
  {
    "slopeId": 407,
    "osmId": "58178115",
    "name": "",
    "difficulty": "easy",
    "resort": "San Martino di Castrozza",
    "ref": "",
    "latitude": 46.2543669,
    "longitude": 11.7969475
  },
  {
    "slopeId": 408,
    "osmId": "58178116",
    "name": "Tognola Uno",
    "difficulty": "intermediate",
    "resort": "San Martino di Castrozza",
    "ref": "",
    "latitude": 46.246114,
    "longitude": 11.7833026
  },
  {
    "slopeId": 409,
    "osmId": "58178123",
    "name": "",
    "difficulty": "easy",
    "resort": "San Martino di Castrozza",
    "ref": "",
    "latitude": 46.2547613,
    "longitude": 11.7983958
  },
  {
    "slopeId": 410,
    "osmId": "58178124",
    "name": "Colbricon",
    "difficulty": "intermediate",
    "resort": "San Martino di Castrozza - Passo Rolle",
    "ref": "16",
    "latitude": 46.2682324,
    "longitude": 11.7580887
  },
  {
    "slopeId": 411,
    "osmId": "58178125",
    "name": "Tognola Tre",
    "difficulty": "intermediate",
    "resort": "San Martino di Castrozza",
    "ref": "24",
    "latitude": 46.2489524,
    "longitude": 11.7753287
  },
  {
    "slopeId": 412,
    "osmId": "58178126",
    "name": "Tognola 1-3",
    "difficulty": "easy",
    "resort": "San Martino di Castrozza",
    "ref": "23",
    "latitude": 46.2540576,
    "longitude": 11.7851733
  },
  {
    "slopeId": 413,
    "osmId": "58230676",
    "name": "",
    "difficulty": "easy",
    "resort": "Ski Weg Coston",
    "ref": "",
    "latitude": 46.2635858,
    "longitude": 11.7646782
  },
  {
    "slopeId": 414,
    "osmId": "58230678",
    "name": "Coston",
    "difficulty": "intermediate",
    "resort": "San Martino di Castrozza - Passo Rolle",
    "ref": "14",
    "latitude": 46.2668259,
    "longitude": 11.7720052
  },
  {
    "slopeId": 415,
    "osmId": "58230681",
    "name": "Sole",
    "difficulty": "intermediate",
    "resort": "San Martino di Castrozza - Passo Rolle",
    "ref": "17",
    "latitude": 46.2648136,
    "longitude": 11.761016
  },
  {
    "slopeId": 416,
    "osmId": "58230682",
    "name": "Cigolera",
    "difficulty": "intermediate",
    "resort": "San Martino di Castrozza",
    "ref": "",
    "latitude": 46.2473214,
    "longitude": 11.7674738
  },
  {
    "slopeId": 417,
    "osmId": "59204384",
    "name": "",
    "difficulty": "intermediate",
    "resort": "Variante Presena Paradiso",
    "ref": "",
    "latitude": 46.2339972,
    "longitude": 10.5803921
  },
  {
    "slopeId": 418,
    "osmId": "59204387",
    "name": "Ghiacciaio Presena",
    "difficulty": "advanced",
    "resort": "Ghiacciaio Presena",
    "ref": "",
    "latitude": 46.2237973,
    "longitude": 10.5827744
  },
  {
    "slopeId": 419,
    "osmId": "59204388",
    "name": "",
    "difficulty": "advanced",
    "resort": "Paradiso",
    "ref": "",
    "latitude": 46.2466167,
    "longitude": 10.5764629
  },
  {
    "slopeId": 420,
    "osmId": "60638438",
    "name": "Col Verde",
    "difficulty": "intermediate",
    "resort": "Prà delle Nasse DX",
    "ref": "",
    "latitude": 46.2653249,
    "longitude": 11.8077698
  },
  {
    "slopeId": 421,
    "osmId": "60638443",
    "name": "",
    "difficulty": "intermediate",
    "resort": "Prà delle Nasse DX",
    "ref": "",
    "latitude": 46.2694775,
    "longitude": 11.819458
  },
  {
    "slopeId": 422,
    "osmId": "60638448",
    "name": "",
    "difficulty": "intermediate",
    "resort": "Prà delle Nasse DX",
    "ref": "",
    "latitude": 46.2677808,
    "longitude": 11.8193206
  },
  {
    "slopeId": 423,
    "osmId": "69363638",
    "name": "Valbonetta",
    "difficulty": "easy",
    "resort": "San Martino di Castrozza - Passo Rolle",
    "ref": "20",
    "latitude": 46.2712154,
    "longitude": 11.7735298
  },
  {
    "slopeId": 424,
    "osmId": "70846399",
    "name": "",
    "difficulty": "easy",
    "resort": "4b",
    "ref": "",
    "latitude": 46.6655349,
    "longitude": 12.371228
  },
  {
    "slopeId": 425,
    "osmId": "76845930",
    "name": "",
    "difficulty": "easy",
    "resort": "Schöneben - Belpiano",
    "ref": "",
    "latitude": 46.7853942,
    "longitude": 10.5176937
  },
  {
    "slopeId": 426,
    "osmId": "77383377",
    "name": "",
    "difficulty": "advanced",
    "resort": "Sport Thöni",
    "ref": "",
    "latitude": 46.5134671,
    "longitude": 10.5957462
  },
  {
    "slopeId": 427,
    "osmId": "77383395",
    "name": "",
    "difficulty": "advanced",
    "resort": "Sport Thöni",
    "ref": "",
    "latitude": 46.5139913,
    "longitude": 10.5956677
  },
  {
    "slopeId": 428,
    "osmId": "77383415",
    "name": "",
    "difficulty": "advanced",
    "resort": "Sulden am Ortler - Solda al Ortles",
    "ref": "",
    "latitude": 46.5132373,
    "longitude": 10.5958338
  },
  {
    "slopeId": 429,
    "osmId": "77383580",
    "name": "",
    "difficulty": "advanced",
    "resort": "Sulden am Ortler - Solda al Ortles",
    "ref": "",
    "latitude": 46.5040244,
    "longitude": 10.598144
  },
  {
    "slopeId": 430,
    "osmId": "79058737",
    "name": "",
    "difficulty": "easy",
    "resort": "4b",
    "ref": "",
    "latitude": 46.6643848,
    "longitude": 12.3726498
  },
  {
    "slopeId": 431,
    "osmId": "79058740",
    "name": "",
    "difficulty": "easy",
    "resort": "4b",
    "ref": "",
    "latitude": 46.6644062,
    "longitude": 12.3718522
  },
  {
    "slopeId": 432,
    "osmId": "79058746",
    "name": "",
    "difficulty": "easy",
    "resort": "4b",
    "ref": "",
    "latitude": 46.6647025,
    "longitude": 12.3728645
  },
  {
    "slopeId": 433,
    "osmId": "79058761",
    "name": "Holzriese I",
    "difficulty": "advanced",
    "resort": "Holzriese I",
    "ref": "3a",
    "latitude": 46.6679802,
    "longitude": 12.373007
  },
  {
    "slopeId": 434,
    "osmId": "82284880",
    "name": "",
    "difficulty": "intermediate",
    "resort": "Seewiese",
    "ref": "",
    "latitude": 46.744358,
    "longitude": 11.9543747
  },
  {
    "slopeId": 435,
    "osmId": "84653317",
    "name": "Roseal",
    "difficulty": "intermediate",
    "resort": "Buffaure - Ciampac",
    "ref": "",
    "latitude": 46.4382329,
    "longitude": 11.7640118
  },
  {
    "slopeId": 436,
    "osmId": "84653319",
    "name": "Sasso di Rocca 1",
    "difficulty": "intermediate",
    "resort": "Buffaure - Ciampac",
    "ref": "",
    "latitude": 46.4369869,
    "longitude": 11.7690888
  },
  {
    "slopeId": 437,
    "osmId": "84653330",
    "name": "Roseal 2",
    "difficulty": "intermediate",
    "resort": "Buffaure - Ciampac",
    "ref": "",
    "latitude": 46.4396747,
    "longitude": 11.7677411
  },
  {
    "slopeId": 438,
    "osmId": "84653335",
    "name": "Sella Brunech",
    "difficulty": "intermediate",
    "resort": "Buffaure - Ciampac",
    "ref": "",
    "latitude": 46.4417805,
    "longitude": 11.7677822
  },
  {
    "slopeId": 439,
    "osmId": "84656019",
    "name": "Pala del Geiger",
    "difficulty": "intermediate",
    "resort": "Buffaure - Ciampac",
    "ref": "",
    "latitude": 46.4366757,
    "longitude": 11.7338611
  },
  {
    "slopeId": 440,
    "osmId": "84656024",
    "name": "",
    "difficulty": "intermediate",
    "resort": "Buffaure - Ciampac",
    "ref": "",
    "latitude": 46.4394011,
    "longitude": 11.7341472
  },
  {
    "slopeId": 441,
    "osmId": "86870887",
    "name": "Risaccia",
    "difficulty": "easy",
    "resort": "Centro di fondo Vallunga",
    "ref": "",
    "latitude": 46.5567157,
    "longitude": 11.7708322
  },
  {
    "slopeId": 442,
    "osmId": "86870892",
    "name": "Dantercepies - Risaccia",
    "difficulty": "easy",
    "resort": "Sport Schenk",
    "ref": "",
    "latitude": 46.5562563,
    "longitude": 11.7691805
  },
  {
    "slopeId": 443,
    "osmId": "86870898",
    "name": "Frainella",
    "difficulty": "intermediate",
    "resort": "Centro di fondo Vallunga",
    "ref": "",
    "latitude": 46.5569251,
    "longitude": 11.7709655
  },
  {
    "slopeId": 444,
    "osmId": "86929522",
    "name": "Sochers",
    "difficulty": "intermediate",
    "resort": "Val Gardena",
    "ref": "",
    "latitude": 46.5403224,
    "longitude": 11.7409339
  },
  {
    "slopeId": 445,
    "osmId": "86960120",
    "name": "Mortic",
    "difficulty": "intermediate",
    "resort": "Belvedere - Col Rodella - Passo Pordoi",
    "ref": "11 Bis",
    "latitude": 46.4875622,
    "longitude": 11.7794522
  },
  {
    "slopeId": 446,
    "osmId": "88188231",
    "name": "Valvacin",
    "difficulty": "intermediate",
    "resort": "Buffaure - Ciampac",
    "ref": "",
    "latitude": 46.4315659,
    "longitude": 11.7293812
  },
  {
    "slopeId": 447,
    "osmId": "88222207",
    "name": "San Valentino Nord",
    "difficulty": "easy",
    "resort": "Diretta Bucaneve",
    "ref": "",
    "latitude": 45.7831288,
    "longitude": 10.9174093
  },
  {
    "slopeId": 448,
    "osmId": "88222208",
    "name": "San Valentino Nord",
    "difficulty": "easy",
    "resort": "Intermedia",
    "ref": "28",
    "latitude": 45.7787673,
    "longitude": 10.9204234
  },
  {
    "slopeId": 449,
    "osmId": "88222209",
    "name": "Mosee",
    "difficulty": "freeride",
    "resort": "Diretta Bucaneve",
    "ref": "",
    "latitude": 45.7822604,
    "longitude": 10.9199662
  },
  {
    "slopeId": 450,
    "osmId": "88601299",
    "name": "Muro Bucaneve",
    "difficulty": "advanced",
    "resort": "Muro Bucaneve",
    "ref": "",
    "latitude": 45.785509,
    "longitude": 10.922316
  },
  {
    "slopeId": 451,
    "osmId": "88601300",
    "name": "Cronel",
    "difficulty": "intermediate",
    "resort": "Cronel",
    "ref": "",
    "latitude": 45.7813728,
    "longitude": 10.9230579
  },
  {
    "slopeId": 452,
    "osmId": "88601304",
    "name": "Campeggio",
    "difficulty": "intermediate",
    "resort": "Campeggio",
    "ref": "",
    "latitude": 45.7864037,
    "longitude": 10.9238156
  },
  {
    "slopeId": 453,
    "osmId": "88601311",
    "name": "Intermedia",
    "difficulty": "intermediate",
    "resort": "Intermedia",
    "ref": "",
    "latitude": 45.7807117,
    "longitude": 10.9237772
  },
  {
    "slopeId": 454,
    "osmId": "88601314",
    "name": "Panoramica",
    "difficulty": "easy",
    "resort": "Cronel",
    "ref": "",
    "latitude": 45.7832404,
    "longitude": 10.9233812
  },
  {
    "slopeId": 455,
    "osmId": "88601320",
    "name": "Vallette",
    "difficulty": "intermediate",
    "resort": "Vallette",
    "ref": "",
    "latitude": 45.7803981,
    "longitude": 10.9244695
  },
  {
    "slopeId": 456,
    "osmId": "88603824",
    "name": "Rosa del sole",
    "difficulty": "advanced",
    "resort": "Brentonico",
    "ref": "20",
    "latitude": 45.774999,
    "longitude": 10.9315999
  },
  {
    "slopeId": 457,
    "osmId": "89871810",
    "name": "",
    "difficulty": "intermediate",
    "resort": "Rosskopf",
    "ref": "1",
    "latitude": 46.948374,
    "longitude": 11.3812622
  },