[
  {
    "id": 1,
    "osmId": 1104358447,
    "osm_type": "node",
    "name": "Sportrent Speikboden",
    "shop_type": "ski",
    "phone": "",
    "website": "",
    "addr_city": "",
    "addr_street": "",
    "addr_postcode": "",
    "latitude": 46.9328746,
    "longitude": 11.9377795
  },
  {
    "id": 2,
    "osmId": 1230713862,
    "osm_type": "node",
    "name": "Noleggio sci Sport Center Ski",
    "shop_type": "ski",
    "phone": "",
    "website": "http://www.noleggioscivaldifassa.it",
    "addr_city": "Pozza di Fassa",
    "addr_street": "Strada de Meida",
    "addr_postcode": "38036",
    "latitude": 46.4294651,
    "longitude": 11.6937257
  },
  {
    "id": 3,
    "osmId": 5316633023,
    "osm_type": "node",
    "name": "albl",
    "shop_type": "ski",
    "phone": "+39 333 1704059",
    "website": "",
    "addr_city": "",
    "addr_street": "",
    "addr_postcode": "",
    "latitude": 46.5138375,
    "longitude": 10.9338183
  },
  {
    "id": 4,
    "osmId": 5814793989,
    "osm_type": "node",
    "name": "Skicenter St. Johann",
    "shop_type": "ski",
    "phone": "",
    "website": "",
    "addr_city": "",
    "addr_street": "",
    "addr_postcode": "",
    "latitude": 46.9674173,
    "longitude": 11.9250306
  },
  {
    "id": 5,
    "osmId": 6289187970,
    "osm_type": "node",
    "name": "",
    "shop_type": "ski",
    "phone": "",
    "website": "",
    "addr_city": "",
    "addr_street": "",
    "addr_postcode": "",
    "latitude": 46.9333735,
    "longitude": 11.9364215
  },
  {
    "id": 6,
    "osmId": 6466815112,
    "osm_type": "node",
    "name": "Ski School S. Cristina",
    "shop_type": "ski_rental",
    "phone": "",
    "website": "",
    "addr_city": "",
    "addr_street": "",
    "addr_postcode": "",
    "latitude": 46.5569714,
    "longitude": 11.7258401
  },
  {
    "id": 7,
    "osmId": 7047951560,
    "osm_type": "node",
    "name": "Ski School & Rental Ortisei",
    "shop_type": "ski_rental",
    "phone": "",
    "website": "",
    "addr_city": "",
    "addr_street": "",
    "addr_postcode": "",
    "latitude": 46.5765605,
    "longitude": 11.6748659
  },
  {
    "id": 8,
    "osmId": 7282829983,
    "osm_type": "node",
    "name": "Skiverleih Gufler",
    "shop_type": "ski",
    "phone": "",
    "website": "",
    "addr_city": "",
    "addr_street": "",
    "addr_postcode": "",
    "latitude": 46.7971203,
    "longitude": 11.0921511
  },
  {
    "id": 9,
    "osmId": 7704856850,
    "osm_type": "node",
    "name": "Maciaconi",
    "shop_type": "ski_rental",
    "phone": "",
    "website": "",
    "addr_city": "",
    "addr_street": "",
    "addr_postcode": "",
    "latitude": 46.5583359,
    "longitude": 11.7284331
  },
  {
    "id": 10,
    "osmId": 8794311016,
    "osm_type": "node",
    "name": "Outdoor Center Rosskopf",
    "shop_type": "ski_rental",
    "phone": "",
    "website": "",
    "addr_city": "",
    "addr_street": "",
    "addr_postcode": "",
    "latitude": 46.9126212,
    "longitude": 11.3973771
  },
  {
    "id": 11,
    "osmId": 9196392368,
    "osm_type": "node",
    "name": "Sportservice Erwin Stricker",
    "shop_type": "ski_rental",
    "phone": "",
    "website": "",
    "addr_city": "",
    "addr_street": "",
    "addr_postcode": "",
    "latitude": 46.6776077,
    "longitude": 11.737507
  },
  {
    "id": 12,
    "osmId": 11476648880,
    "osm_type": "node",
    "name": "",
    "shop_type": "ski",
    "phone": "",
    "website": "https://www.fiemme.ski/",
    "addr_city": "",
    "addr_street": "",
    "addr_postcode": "",
    "latitude": 46.3466337,
    "longitude": 11.4529849
  },
  {
    "id": 13,
    "osmId": 12741878683,
    "osm_type": "node",
    "name": "Sport Thöni",
    "shop_type": "ski",
    "phone": "+39 0473 613080",
    "website": "https://www.sportthoeni.com",
    "addr_city": "",
    "addr_street": "",
    "addr_postcode": "",
    "latitude": 46.5199054,
    "longitude": 10.5962964
  },
  {
    "id": 14,
    "osmId": 59275902,
    "osm_type": "way",
    "name": "Northland Ski Shop",
    "shop_type": "ski",
    "phone": "",
    "website": "",
    "addr_city": "",
    "addr_street": "Via Del Piz",
    "addr_postcode": "38032",
    "latitude": 46.4737401,
    "longitude": 11.7737888
  },
  {
    "id": 15,
    "osmId": 88060148,
    "osm_type": "way",
    "name": "Noleggio del Brenta",
    "shop_type": "ski",
    "phone": "",
    "website": "",
    "addr_city": "Madonna di Campiglio",
    "addr_street": "Via Cima Tosa",
    "addr_postcode": "38084",
    "latitude": 46.2335288,
    "longitude": 10.8238363
  },
  {
    "id": 16,
    "osmId": 252275752,
    "osm_type": "way",
    "name": "",
    "shop_type": "ski",
    "phone": "",
    "website": "",
    "addr_city": "",
    "addr_street": "",
    "addr_postcode": "",
    "latitude": 46.9043031,
    "longitude": 11.3111626
  }
]